place_id,name,lat,lng,address,types,rating,user_ratings_total,phone,website,opening_hours_present,source_query,category
ChIJF2_wv4lHDW0R47WKR5aSdmE,Onslow,-36.84768529999999,174.7699566,"9 Princes Street, Auckland Central, Auckland 1010, New Zealand","establishment,food,point_of_interest,restaurant",4.8,1289.0,+64 9 930 9123,http://www.onslow.nz/,True,restaurant in Auckland,restaurant
ChIJKWPi4S5HDW0R-Ao9My5Mf48,Gilt Brasserie,-36.84765489999999,174.7671961,"2 Chancery Street, Chambers, Auckland 1010, New Zealand","establishment,food,point_of_interest,restaurant",4.6,613.0,+64 9 300 3126,https://giltbrasserie.nz/,True,restaurant in Auckland,restaurant
ChIJjz8Dgf5HDW0RcKfgUZdV8fw,Amano,-36.8444119,174.770464,"66 - 68, Tyler Street, Britomart Place, Auckland Central, Auckland 1010, New Zealand","bakery,establishment,food,point_of_interest,restaurant,store",4.6,4358.0,+64 9 394 1416,https://savor.co.nz/amano,True,restaurant in Auckland,restaurant
ChIJdQU6o-RHDW0RBI93MBK5gcU,Hello Beasty,-36.8431117,174.7624635,"95-97 Customs Street West, Auckland Central, Auckland 1010, New Zealand","establishment,food,point_of_interest,restaurant",4.7,1394.0,+64 21 554 496,http://hellobeasty.nz/,True,restaurant in Auckland,restaurant
ChIJKZLQLLRHDW0R_F9vtz1cjiQ,alma,-36.84408579999999,174.7691648,"130 Quay Street, Auckland Central, Auckland 1010, New Zealand","establishment,food,point_of_interest,restaurant",4.7,405.0,+64 9 242 1570,http://www.alma.nz/,True,restaurant in Auckland,restaurant
ChIJS_i53flHDW0R6H8fEWgxVfk,Soul Bar & Bistro,-36.8434055,174.7630167,"Corner of Lower Hobson Street, Customs Street West, Auckland Central, Auckland 1010, New Zealand","bar,establishment,food,point_of_interest,restaurant",4.5,2315.0,+64 9 356 7249,http://www.soulbar.co.nz/,True,restaurant in Auckland,restaurant
ChIJQ3yEHpFHDW0Rka8ZeCQTnsc,Prego Restaurant,-36.852697,174.744828,"226 Ponsonby Road, Ponsonby, Auckland 1011, New Zealand","establishment,food,point_of_interest,restaurant",4.6,2031.0,+64 9 376 3095,http://www.prego.co.nz/,True,restaurant in Auckland,restaurant
ChIJZRJ2-fpHDW0RbWGgZq__SR4,Culprit.,-36.8473823,174.7650338,"Level 1/12 Wyndham Street, Auckland Central, Auckland 1010, New Zealand","establishment,food,point_of_interest,restaurant",4.7,579.0,+64 9 377 5992,http://www.culprit.co.nz/,True,restaurant in Auckland,restaurant
ChIJMTPDyKdHDW0RrQ05a1Yl4hI,Milenta,-36.8485532,174.7546801,"210-218 Victoria Street West, Auckland 1010, New Zealand","establishment,food,point_of_interest,restaurant",4.7,282.0,+64 274 404 410,http://www.milenta.co.nz/,True,restaurant in Auckland,restaurant
ChIJn3Evd2xHDW0RWNG-B0TrPxg,Ahi.,-36.84356150000001,174.766454,"Commercial Bay Level 2/7 Queen Street, Auckland Central, Auckland 1010, New Zealand","establishment,food,point_of_interest,restaurant",4.6,1067.0,+64 22 524 4255,http://ahi.restaurant/,True,restaurant in Auckland,restaurant
ChIJzV2foiBGDW0ROPBzbgZDJuc,One Tree Grill,-36.8998252,174.77273,"9 Pah Road, Epsom, Auckland 1023, New Zealand","establishment,food,point_of_interest,restaurant",4.8,1585.0,+64 9 909 7215,https://www.onetreegrill.co.nz/,True,restaurant in Auckland,restaurant
ChIJ6xqrBUpHDW0RTkGfs86hr6c,Metita,-36.849185,174.7623444,"Level 3/90 Federal Street, Auckland Central, Auckland 1010, New Zealand","establishment,food,point_of_interest,restaurant",4.6,188.0,+64 9 363 7030,https://skycityauckland.co.nz/restaurants/metita/,True,restaurant in Auckland,restaurant
ChIJ2f8MNVNHDW0Rlapwj_a7m2w,Origine Bistro,-36.8439762,174.7661423,"Commercial Bay Level 2/172 Quay Street, Auckland Central, Auckland 1010, New Zealand","bar,establishment,food,point_of_interest,restaurant",4.5,413.0,+64 27 674 4463,http://www.origine.nz/,True,restaurant in Auckland,restaurant
ChIJH0QT3l9HDW0R0f5rIVly8yw,Bossi,-36.8455876,174.7680713,"10 Commerce Street, Auckland Central, Auckland 1010, New Zealand","establishment,food,point_of_interest,restaurant",4.6,967.0,+64 9 948 0906,http://www.bossi.co.nz/,True,restaurant in Auckland,restaurant
ChIJ7UV0PmA4DW0R44MsmijS--o,Moxie Restaurant,-36.8176563,174.7325474,"82 Hinemoa Street, Birkenhead, Auckland 0626, New Zealand","establishment,food,point_of_interest,restaurant",4.8,521.0,+64 9 419 9082,http://www.moxierestaurant.co.nz/,True,restaurant in Auckland,restaurant
ChIJ6esl0z5HDW0RL8AMaU22H8k,Tempero,-36.8580455,174.757105,"352 Karangahape Road, Auckland Central, Auckland 1010, New Zealand","establishment,food,point_of_interest,restaurant",4.9,447.0,+64 9 218 2011,http://www.temperoakl.com/,True,restaurant in Auckland,restaurant
ChIJsR8Kx2k4DW0RjYOZyig1xDw,The Engine Room,-36.8180556,174.7455556,"115 Queen Street, Northcote Point, Auckland 0627, New Zealand","establishment,food,point_of_interest,restaurant",4.5,382.0,+64 9 480 9502,http://www.engineroom.net.nz/,True,restaurant in Auckland,restaurant
ChIJi1WB6AdHDW0R0WK3WE8zXQg,Ada Restaurant,-36.8672616,174.7402636,"454 Great North Road, Grey Lynn, Auckland 1021, New Zealand","establishment,food,point_of_interest,restaurant",4.6,897.0,+64 210 909 0101,http://www.adarestaurant.co.nz/,True,restaurant in Auckland,restaurant
ChIJC-hvnDpHDW0RXuKc8YA3m-8,BODA,-36.84454,174.7671976,"Top Floor/8 Customs Street East, Auckland Central, Auckland 1010, New Zealand","bar,establishment,food,point_of_interest,restaurant",4.2,242.0,+64 9 302 9424,https://boda.restaurant/,True,restaurant in Auckland,restaurant
ChIJI-nDigpHDW0R3viWyJ_06Yc,Paname Social,-36.8495923,174.7658133,"1/3 Lorne Street, Auckland Central, Auckland 1010, New Zealand","bar,cafe,establishment,food,point_of_interest,restaurant",4.3,291.0,+64 9 884 0983,https://www.panamesocial.co.nz/?fbclid=PAAaaXQSPI3joeLPNoRLab4I5l7rWlAQLA_ECggdM8gEhv_l--75ubGUZiiQ4,True,restaurant in Auckland,restaurant
ChIJk7fiDvBHDW0R9qAp_JPxDeE,Depot,-36.8490404,174.762373,"86 Federal Street, Auckland Central, Auckland 1010, New Zealand","establishment,food,point_of_interest,restaurant",4.6,2024.0,+64 9 363 7048,https://depoteatery.co.nz/,True,restaurant in Auckland,restaurant
ChIJHXbNULw5DW0RHgPdHtDDMIc,SangSang,-36.7809739,174.7219275,"8b/111 Bentley Avenue, Glenfield, Auckland 0629, New Zealand","establishment,food,point_of_interest,restaurant",4.5,154.0,+64 9 200 0474,,True,restaurant in Auckland,restaurant
ChIJFVXaZgU5DW0R9CGge9LDFoc,The Postman's Leg,-36.7839458,174.7226072,"43-51 Downing Street, Glenfield, Auckland 0629, New Zealand","bar,establishment,food,point_of_interest,restaurant",4.2,2429.0,+64 9 444 7325,https://www.stargroup.nz/venues/the-postmans-leg,True,restaurant in Auckland,restaurant
ChIJXUoYKw45DW0RVnRNKzfKFuw,Paasha,-36.7807211,174.7213061,"444 Glenfield Road, Glenfield, Auckland 0629, New Zealand","establishment,food,point_of_interest,restaurant",4.5,1176.0,+64 9 444 4262,https://paashaglenfield.co.nz/,True,restaurant in Auckland,restaurant
ChIJAb5Q7vtHDW0R9u_uz-mFnZY,Cassia,-36.849185,174.7623444,"90 Federal Street, Auckland Central, Auckland 1010, New Zealand","establishment,food,point_of_interest,restaurant",4.6,846.0,+64 9 379 9702,https://skycityauckland.co.nz/restaurants/cassia/,True,restaurant in Auckland,restaurant
ChIJB2rmNupHDW0RDxt4gaYTl1Y,Otto Restaurant,-36.857933,174.7565533,"375 Karangahape Road, Auckland Central, Auckland 1010, New Zealand","bar,establishment,food,point_of_interest,restaurant",4.7,1228.0,+64 9 394 1555,https://www.otto-krd.nz/,True,restaurant in Auckland,restaurant
ChIJ43y8JLQ5DW0RMN47Whk85wY,Bushman's Grill,-36.7909021,174.7489471,"31 Northcote Road, Hillcrest, Auckland 0627, New Zealand","establishment,food,point_of_interest,restaurant",4.5,1635.0,+64 9 418 0056,http://bushmansgrill.co.nz/,True,restaurant in Auckland,restaurant
ChIJNwODoPpHDW0Rz7CT2fSmrmY,The Glass Goose,-36.8485799,174.7627243,"78 Federal Street, Auckland Central, Auckland 1011, New Zealand","bar,establishment,food,point_of_interest,restaurant",4.1,1049.0,+64 9 379 9404,http://www.glassgoose.co.nz/,True,restaurant in Auckland,restaurant
ChIJJdsozvVHDW0RGpYtg7jcwyI,Baduzzi,-36.84108,174.7570445,"10/26 Jellicoe Street, North Wharf, Auckland 1010, New Zealand","establishment,food,point_of_interest,restaurant",4.5,2415.0,+64 9 309 9339,http://www.baduzzi.co.nz/,True,restaurant in Auckland,restaurant
ChIJLTxNV-VHDW0RQgvsgS0ZHkk,Tony's Original Steak & Seafood Restaurant,-36.8503322,174.7632109,"27 Wellesley Street West, Auckland Central, Auckland 1010, New Zealand","establishment,food,point_of_interest,restaurant",4.5,2785.0,+64 9 373 4196,http://tonys.co.nz/,True,restaurant in Auckland,restaurant
ChIJY9z4w_tHDW0RMU8TjUu4Q_Q,Cooke's Restaurant & Bar,-36.845543,174.7665245,"58/60 Queen Street, Auckland Central, Auckland 1010, New Zealand","bar,establishment,food,point_of_interest,restaurant",4.5,152.0,+64 9 309 9979,https://cookesrestaurant.co.nz/,True,restaurant in Auckland,restaurant
ChIJWeTIvflHDW0RR2h4JBSQWlk,Beast & Butterflies Auckland,-36.8428577,174.7644086,"196/200 Quay Street, Auckland Central, Auckland 1010, New Zealand","bar,cafe,establishment,food,point_of_interest,restaurant",4.5,447.0,+64 9 377 0349,https://www.beastandbutterflies.co.nz/,True,restaurant in Auckland,restaurant
ChIJ94UFpuhHDW0RQ7B1sFdz7IM,Le Garde-Manger,-36.8557591,174.7625981,"466 Queen Street, Auckland Central, Auckland 1010, New Zealand","cafe,establishment,food,point_of_interest,restaurant",4.6,1238.0,+64 9 362 0655,http://www.legardemanger.co.nz/,True,restaurant in Auckland,restaurant
ChIJL36E4_lHDW0RpxlDH4605ek,Giraffe,-36.8434292,174.7631201,"85/89 Customs Street West, Auckland Central, Auckland 1010, New Zealand","establishment,food,point_of_interest,restaurant",4.2,983.0,+64 9 358 1093,http://www.girafferestaurant.co.nz/,True,restaurant in Auckland,restaurant
ChIJOeEFBfBHDW0RPSLQ3nXiKnQ,MASU by Nic Watt,-36.8492648,174.7623425,"90 Federal Street, Auckland Central, Auckland 1010, New Zealand","establishment,food,point_of_interest,restaurant",4.5,1051.0,+64 9 363 6278,https://www.skycityauckland.co.nz/restaurants/masu/,True,restaurant in Auckland,restaurant
ChIJa9wQYUxBDW0RIt0UPmub6CI,Goode Brothers,-36.9065244,174.6869151,"Lynn Mall 118/3058 Great North Rd, New Lynn, Auckland 0600, New Zealand","bar,establishment,food,point_of_interest,restaurant",4.5,3802.0,+64 9 826 4381,https://www.stargroup.nz/venues/goode-brothers-new-lynn,True,restaurant in Auckland,restaurant
ChIJVbK0vthHDW0Rtwx5X7nMVdk,Atelier,-36.85777170000001,174.7579948,"292 Karangahape Road, Auckland Central, Auckland 1010, New Zealand","establishment,food,point_of_interest,restaurant",4.7,273.0,+64 9 873 4657,http://www.atelierkrd.co.nz/,True,restaurant in Auckland,restaurant
ChIJJ7UknfpHDW0RdDuSCbbrYqM,1947 eatery,-36.8478134,174.7630138,"60 Federal Street, Auckland Central, Auckland 1010, New Zealand","bar,establishment,food,point_of_interest,restaurant",4.2,2278.0,+64 9 377 0033,http://www.1947eatery.co.nz/,True,restaurant in Auckland,restaurant
ChIJo6kx__tHDW0RfYZhUz-xZUI,Perch Britomart,-36.8446162,174.767925,"23 Galway Street, Britomart, Auckland 1010, New Zealand","bar,establishment,food,point_of_interest,restaurant",4.4,606.0,+64 9 309 5529,http://www.perchbritomart.co.nz/,True,restaurant in Auckland,restaurant
ChIJ5Y7MO21HDW0RWGUpe1aqnb4,Ghost Donkey,-36.843296,174.7664794,"Commercial Bay Level 2/1 Queen Street, Auckland Central, Auckland 1010, New Zealand","bar,establishment,food,point_of_interest,restaurant",4.3,390.0,+64 9 869 7147,http://www.ghostdonkey.nz/,True,restaurant in Auckland,restaurant
ChIJtZKxxg9IDW0R2aEnezRg0PU,Cibo,-36.8524474,174.7829914,"91 Saint Georges Bay Road, Parnell, Auckland 1052, New Zealand","establishment,food,point_of_interest,restaurant",4.6,553.0,+64 9 303 9660,http://www.cibo.co.nz/,True,restaurant in Auckland,restaurant
ChIJxR38YvxHDW0R-z-ILx9ZXZI,Hugo's Bistro,-36.8471299,174.7688813,"67 Shortland Street, Auckland Central, Auckland 1010, New Zealand","establishment,food,point_of_interest,restaurant",4.6,218.0,+64 9 320 4387,http://hugosbistro.co.nz/,True,restaurant in Auckland,restaurant
ChIJ11dVbfBHDW0RrTQPtgLdDek,Orbit 360° Dining,-36.8484982,174.7621796,"72 - 78 Victoria Street West Level 52, Sky Tower, Victoria Street West, Auckland Central, Auckland 1010, New Zealand","establishment,food,point_of_interest,restaurant",4.3,1568.0,+64 9 363 6000,https://skycityauckland.co.nz/restaurants/orbit/,True,restaurant in Auckland,restaurant
ChIJxcY1GSJHDW0RZ__hwRVJPnw,Mr. Morris,-36.844765,174.7682328,"Britomart, Corner of Galway & Commerce Street, Auckland Central, Auckland 1010, New Zealand","establishment,food,point_of_interest,restaurant",4.7,358.0,+64 9 869 5522,http://www.mrmorris.nz/,True,restaurant in Auckland,restaurant
ChIJ5ZkNhgClC20Rg-cKAOMJxOo,Ragtag,-36.8542437,174.7181346,"162 Garnet Road, Westmere, Auckland 1023, New Zealand","establishment,food,point_of_interest,restaurant",4.8,330.0,+64 21 409 879,http://ragtagnz.com/,True,restaurant in Auckland,restaurant
ChIJl9sFEapHDW0R8tcHwZWhNbc,The Cave Yakitori Bar,-36.8535383,174.7631052,"319 B Queen Street, Auckland Central, Auckland 1010, New Zealand","establishment,food,point_of_interest,restaurant",4.5,986.0,+64 9 379 5151,https://tanukiscave.co.nz/,True,restaurant in Auckland,restaurant
ChIJwRczm1JHDW0RFN5dQQ90hrU,Bivacco,-36.8429437,174.7617072,"115 Customs Street West, Auckland Central, Auckland 1010, New Zealand","establishment,food,point_of_interest,restaurant",4.2,489.0,+64 9 801 6505,http://www.savor.co.nz/bivacco,True,restaurant in Auckland,restaurant
ChIJ6TAx__tHDW0RlkMZG6RqEy0,Cafe Hanoi,-36.8448581,174.7685407,"Tuawhiti Lane, 27 Galway Street, Britomart, Auckland 1010, New Zealand","establishment,food,point_of_interest,restaurant",4.4,1529.0,+64 9 302 3478,http://www.cafehanoi.co.nz/,True,restaurant in Auckland,restaurant
ChIJ_QUTnPtHDW0RIoiN5Hc9MPk,DeBretts Kitchen,-36.8468584,174.7669816,"3B O'Connell Street, Auckland Central, Auckland 1010, New Zealand","bar,cafe,establishment,food,point_of_interest,restaurant,store",4.3,394.0,+64 9 925 9000,https://www.debrettskitchen.co.nz/,True,restaurant in Auckland,restaurant
ChIJYbTiqmI3DW0R_RNDzZrQIYs,Aubergine Restaurants,-36.7854491,174.7734176,"129 Hurstmere Road, Takapuna, Auckland 0622, New Zealand","establishment,food,point_of_interest,restaurant",4.5,1373.0,+64 9 489 3104,http://www.aubergine.co.nz/,True,restaurant in Auckland,restaurant
ChIJycLVrfFHDW0RQAndt_DBaZ4,Le Chef,-36.847205,174.7671002,"13 O'Connell Street, Auckland Central, Auckland 1010, New Zealand","cafe,establishment,food,point_of_interest,restaurant",4.4,1191.0,+64 9 373 4723,https://le-chef.co.nz/,True,restaurant in Auckland,restaurant
ChIJfWpVOfxHDW0REaYXm-GQWZY,Chargrill ️ Grill Restaurant and Bar in Auckland,-36.8461144,174.7688566,"44 Fort Street, Auckland Central, Auckland 1010, New Zealand","bar,establishment,food,meal_takeaway,point_of_interest,restaurant",4.6,850.0,+64 9 373 5252,https://chargrill44.co.nz/,True,restaurant in Auckland,restaurant
ChIJV3nOrvRHDW0R3Hc3DiT5T5k,Sails Restaurant,-36.8390039,174.7432459,"103/113 Westhaven Drive, St Marys Bay, Auckland 1144, New Zealand","establishment,food,point_of_interest,restaurant",4.6,1361.0,+64 9 378 9890,https://www.sailsrestaurant.co.nz/,True,restaurant in Auckland,restaurant
ChIJCfqBDn03DW0Rk8AxBZHjPWM,Tokyo Bay Japanese,-36.7869365,174.7739441,"20 The Strand, Takapuna, Auckland 0622, New Zealand","establishment,food,point_of_interest,restaurant",4.3,1000.0,+64 9 390 7188,http://tokyobay.co.nz/,True,restaurant in Auckland,restaurant
ChIJP2kKVFVHDW0Ref52MRvqxgA,"Rodd & Gunn The Lodge, Auckland",-36.8432548,174.7660786,"Commercial Bay, 7 Queen Street, Auckland 1010, New Zealand","bar,establishment,food,point_of_interest,restaurant",4.4,334.0,+64 9 884 4200,https://www.roddandgunn.com/nz/the-lodge-bar/auckland,True,restaurant in Auckland,restaurant
ChIJDwwNeYRHDW0R6CVXXf7s9sc,Paris Butter,-36.8454642,174.7370108,"166 Jervois Road, Herne Bay, Auckland 1011, New Zealand","establishment,food,point_of_interest,restaurant",4.7,387.0,+64 9 376 5597,http://www.parisbutter.co.nz/,True,restaurant in Auckland,restaurant
ChIJ21cmZfQ4DW0RZIu_nQGS8l8,Mulan Malaysian Restaurant,-36.8125734,174.7270949,"243 Hinemoa Street, Birkenhead, Auckland 0626, New Zealand","establishment,food,point_of_interest,restaurant",4.7,835.0,+64 9 480 2806,http://www.mulan.co.nz/,True,restaurant in Auckland,restaurant
ChIJm7QmKQxIDW0R86smdhN9Ovg,Gerome,-36.8561831,174.7806892,"269 Parnell Road, Parnell, Auckland 1052, New Zealand","establishment,food,point_of_interest,restaurant",4.7,1294.0,+64 9 373 3883,http://www.gerome.nz/,True,restaurant in Auckland,restaurant
ChIJweLUAvBHDW0RYb7lYKN9lxg,The Grill,-36.8486091,174.7607492,"85 Hobson Street, Auckland Central, Auckland 1010, New Zealand","establishment,food,point_of_interest,restaurant",4.5,745.0,+64 800 759 2489,https://skycityauckland.co.nz/restaurants/the-grill/,True,restaurant in Auckland,restaurant
ChIJzRrr1E45DW0RnL4CCgfYXdw,Cafe Third Wave Glenfield,-36.7819552,174.7237853,"77 Bentley Avenue, Glenfield, Auckland 0629, New Zealand","cafe,establishment,food,point_of_interest",4.8,19.0,,,True,cafe in Auckland,restaurant
ChIJ6UDZ5WI3DW0RTCnk2Kq3HiQ,Takapuna Beach Cafe,-36.7841989,174.7753112,"22 The Promenade, Takapuna, Auckland 0622, New Zealand","cafe,establishment,food,meal_takeaway,point_of_interest,restaurant,store",4.4,3403.0,,http://www.takapunabeachcafe.com/,True,cafe in Auckland,restaurant
ChIJPZGSzB05DW0RoKzwYHeHxqE,Little Things Coffee Shop & Micro-Roastery,-36.7818556,174.7214644,"Glenfield Mall Shop 502C, Level 5/385 Glenfield Road, Glenfield, Auckland 0629, New Zealand","cafe,establishment,food,point_of_interest,store",4.8,232.0,+64 9 600 3210,http://www.littlethingscoffee.co.nz/,True,cafe in Auckland,restaurant
ChIJrccisTJGDW0RncDrmsFzxQY,Circus Circus,-36.8823611,174.7619767,"447 Mount Eden Road, Mount Eden, Auckland 1024, New Zealand","cafe,establishment,food,point_of_interest,restaurant,store",4.4,3315.0,+64 9 623 3833,http://www.circuscafe.co.nz/,True,cafe in Auckland,restaurant
ChIJ0a6M8F45DW0R2zRmP0I41Xc,SG Coffee,-36.7616334,174.7248294,"8 Target Road, Totara Vale, Auckland 0629, New Zealand","cafe,establishment,food,point_of_interest,store",4.9,68.0,,,True,cafe in Auckland,restaurant
ChIJf5N6kIc5DW0R0kGLFMMYFmI,Patch Cafe,-36.7842959,174.7385927,"108 Sunnybrae Road, Hillcrest, Auckland 0627, New Zealand","cafe,establishment,food,point_of_interest",4.4,1079.0,+64 9 213 2340,https://m.facebook.com/Patchsunnybrae/,True,cafe in Auckland,restaurant
ChIJBz2XQQA5DW0RX_2ACgXMtR8,Lulu cafe,-36.7675767,174.7383814,"8 Link Drive, Wairau Valley, Auckland 0627, New Zealand","cafe,establishment,food,point_of_interest",4.5,170.0,+64 9 948 9723,https://www.instagram.com/lulucafe.nz/,True,cafe in Auckland,restaurant
ChIJaX1vOOVHDW0Rw23sCKugN-s,Remedy Coffee,-36.8506588,174.7643445,"1 Wellesley Street West, Auckland Central, Auckland 1010, New Zealand","cafe,establishment,food,meal_takeaway,point_of_interest,restaurant,store",4.7,1409.0,+64 210 383 066,https://www.facebook.com/Remedy-Coffee-134703853265719/,True,cafe in Auckland,restaurant
ChIJx2qw3A85DW0ReAqH65pOfic,Cafe Etage,-36.7818854,174.7227402,"40/48 Downing Street, Glenfield, North Shore 0629, New Zealand","cafe,establishment,food,point_of_interest",4.2,50.0,+64 9 978 9613,,True,cafe in Auckland,restaurant
ChIJ8UtKPS45DW0RawGrTXzhabU,VIBE Coffee Roasters,-36.7805767,174.7434315,"1/15 Porana Road, Wairau Valley, Auckland 0627, New Zealand","cafe,establishment,food,point_of_interest",4.5,686.0,+64 800 652 701,http://www.vibecoffee.co.nz/,True,cafe in Auckland,restaurant
ChIJx9JNEPtHDW0RqRRiK6fjD5Q,Chuffed,-36.8480151,174.7662993,"43 High Street, Auckland Central, Auckland 1010, New Zealand","bar,cafe,establishment,food,point_of_interest,restaurant",4.5,1337.0,+64 9 367 6801,https://www.chuffed.co.nz/,True,cafe in Auckland,restaurant
ChIJge-P40s5DW0RA5ZaehnEzpI,Cafe Cezwe,-36.7829896,174.7406184,"59 Porana Road, Wairau Valley, Auckland 0627, New Zealand","cafe,establishment,food,point_of_interest",4.8,489.0,+64 9 444 5225,http://facebook.com/cezwecafe,True,cafe in Auckland,restaurant
ChIJRaM5q65HDW0RYJIJV2BwOqM,Crave,-36.8753495,174.7362892,"6 Morningside Drive, Morningside, Auckland 1025, New Zealand","cafe,establishment,food,point_of_interest,restaurant",4.4,1889.0,+64 9 845 4714,http://cravecafe.co.nz/,True,cafe in Auckland,restaurant
ChIJafGwdfQ4DW0RZmsd5FRceU4,Fika With Me,-36.8121177,174.7264884,"5 Birkenhead Avenue, Birkenhead, Auckland 0626, New Zealand","cafe,establishment,food,point_of_interest,restaurant,store",4.7,365.0,+64 9 418 5508,https://fikawithmebirkenhead.com/,True,cafe in Auckland,restaurant
ChIJQ8ye_tRHDW0RIJ6CeYq4h2w,FLUFF Cafe,-36.8640948,174.7620515,"Unit 7G/38 Khyber Pass Road, Grafton, Auckland 1023, New Zealand","cafe,establishment,food,point_of_interest,restaurant,store",4.8,289.0,+64 9 282 1206,http://fluffhouse.co.nz/,True,cafe in Auckland,restaurant
ChIJmXje_dI5DW0R0sh3x0hCWn4,Toasted Coffee Roasters,-36.7679942,174.7373659,"4 Link Drive, Wairau Valley, Auckland 0627, New Zealand","cafe,establishment,food,point_of_interest",4.6,341.0,+64 9 966 6485,http://toasted.co.nz/,True,cafe in Auckland,restaurant
ChIJx6Xmihc5DW0RtYuHPQgRBkk,Cox House Cafe,-36.7829734,174.7119857,"123 Stanley Road, Glenfield, Auckland 0629, New Zealand","cafe,establishment,food,point_of_interest,restaurant",4.3,131.0,+64 9 440 5868,https://www.facebook.com/CoxHouseCafe/,True,cafe in Auckland,restaurant
ChIJhXrt-A85DW0R4ssXck2kcM0,The Coffee Club Glenfield,-36.7818565,174.7220871,"Shop S201, Glenfield Road &, Downing Street, Glenfield, Auckland 0629, New Zealand","cafe,establishment,food,point_of_interest,store",3.8,281.0,+64 9 441 9062,http://www.thecoffeeclub.co.nz/,True,cafe in Auckland,restaurant
ChIJo1asezI5DW0Rg6rC4Q3chFY,Dear Friends Cafe,-36.7732038,174.7666432,"132 Kitchener Road, Milford, Auckland 0620, New Zealand","cafe,establishment,food,point_of_interest,store",4.5,505.0,+64 21 885 361,,True,cafe in Auckland,restaurant
ChIJaVBq9tY5DW0ROY9aB4eIZXY,Honey Cafe Takapuna,-36.789381,174.7706559,"12 Huron Street, Takapuna, Auckland 0622, New Zealand","cafe,establishment,food,point_of_interest,restaurant",4.5,794.0,+64 9 489 4000,https://honeycafe.co.nz/,True,cafe in Auckland,restaurant
ChIJPf_Sdto5DW0RMFvx_577P3A,Kawana Coffee House,-36.8067891,174.7435851,"1 Kawana Street, Northcote, Auckland 0627, New Zealand","cafe,establishment,food,point_of_interest",4.9,87.0,+64 9 280 1904,,True,cafe in Auckland,restaurant
ChIJi3lg_Lo5DW0RVnOx1nWjb10,Coffee Lab,-36.7821055,174.7440972,"15 Silverfield, Wairau Valley, Auckland 0627, New Zealand","cafe,establishment,food,point_of_interest,restaurant,store",4.5,804.0,+64 9 444 3131,http://www.coffeelab.co.nz/,True,cafe in Auckland,restaurant
ChIJ5zi-uvI5DW0RThpLCTy15n8,Aim High Cafe,-36.8014051,174.7459364,"17 Pearn Place, Northcote, Auckland 0627, New Zealand","cafe,establishment,food,point_of_interest",4.8,105.0,+64 21 112 6483,http://www.aimhightrust.co.nz/,True,cafe in Auckland,restaurant
ChIJdduYPxY6DW0RCarYQdzXwWM,"Montrose Cafe, Bistro and Bar",-36.738059,174.753685,"1 Montrose Terrace, Mairangi Bay, Auckland 0630, New Zealand","cafe,establishment,food,point_of_interest,restaurant",4.5,408.0,+64 9 478 9610,http://www.montrose.org.nz/,True,cafe in Auckland,restaurant
ChIJlzLZZgU5DW0RxhKcJVA7s5A,Little Finch Cafe,-36.7662486,174.7648634,"Inga Road, Castor Bay, Auckland 0620, New Zealand","cafe,establishment,food,point_of_interest,store",4.9,15.0,,,True,cafe in Auckland,restaurant
ChIJXStrtZVHDW0R874ZkzGOPDc,Cafe 39,-36.8573525,174.7486954,"39 Ponsonby Road, Ponsonby, Auckland 1011, New Zealand","bar,cafe,establishment,food,point_of_interest,restaurant",4.8,325.0,+64 9 376 5008,https://www.thirtynine.co.nz/?utm_source=gmb&utm_medium=referrer&utm_campaign=search+%7C+ponsorby,True,cafe in Auckland,restaurant
ChIJabiJMJs7DW0RTWfaa8k1QS4,Jilly's cafe & eatery,-36.7442597,174.6996097,"NZ, 15H Douglas Alexander Parade, Rosedale, Albany 0632, New Zealand","cafe,establishment,food,point_of_interest",4.5,87.0,+64 9 915 8875,http://jillys.co.nz/,True,cafe in Auckland,restaurant
ChIJUzp-tYc5DW0RLcMUsLaf5iY,Fact-Tree,-36.7547264,174.7405429,"1/24 Tonkin Drive, Sunnynook, Auckland 0630, New Zealand","cafe,establishment,food,point_of_interest,restaurant",4.5,629.0,+64 9 410 7617,,True,cafe in Auckland,restaurant
ChIJEYmkEGA4DW0R5aqmMYGJa7Q,Ravenhill Cafe & Restaurant,-36.8170204,174.7322235,"98 Hinemoa Street, Birkenhead, Auckland 0622, New Zealand","cafe,establishment,food,meal_takeaway,point_of_interest,restaurant,store",4.3,547.0,+64 9 418 2898,https://ravenhill.co.nz/,True,cafe in Auckland,restaurant
ChIJCaCvMJ1HDW0Rs3VOc2kR4hY,No.7,-36.856902,174.7587364,"7/59 Pitt Street, Newton, Auckland 1010, New Zealand","bar,cafe,establishment,food,point_of_interest,restaurant,store",4.9,42.0,+64 27 232 3875,https://instagram.com/no.7_akl?igshid=MmJiY2I4NDBkZg==,True,cafe in Auckland,restaurant
ChIJwcGgvog5DW0R4cSY2IXF6aM,The Great Cafe,-36.75970720000001,174.7398767,"Shop8/120 Sunnynook Road, Sunnynook, Auckland 0620, New Zealand","cafe,establishment,food,point_of_interest,restaurant",4.6,210.0,+64 9 410 4270,,True,cafe in Auckland,restaurant
ChIJBXjya_I4DW0RZ_clLWSaNKQ,Bungalo Cafe,-36.8119779,174.7220875,"96 Mokoia Road, Birkenhead, Auckland 0626, New Zealand","cafe,establishment,food,point_of_interest,restaurant,store",4.4,754.0,+64 9 480 2819,http://www.bungalo.co.nz/,True,cafe in Auckland,restaurant
ChIJR4ViocE-DW0Rul35B7vMS2I,The Collins Cafe And Bar,-36.7743611,174.6711997,"20 Greenhithe Road, Greenhithe, Auckland 0632, New Zealand","bar,cafe,establishment,food,point_of_interest,restaurant",4.4,488.0,+64 9 413 9322,,True,cafe in Auckland,restaurant
ChIJU3eheKVHDW0R1N_TrCOFlzI,Benedict's,-36.8625192,174.760267,"1/30 Saint Benedicts Street, Eden Terrace, Auckland 1010, New Zealand","cafe,establishment,food,point_of_interest,restaurant",4.5,360.0,+64 9 212 1621,https://www.benedicts.co.nz/,True,cafe in Auckland,restaurant
ChIJzZxxYY85DW0RTty0qWA-T00,Pure Cafe,-36.8009489,174.7572597,"5 The Warehouse Way, Northcote, Auckland 0627, New Zealand","cafe,establishment,food,point_of_interest,store",4.9,50.0,+64 9 489 9547,,True,cafe in Auckland,restaurant
ChIJ7XcxPKU5DW0R6m8PZbxPx6s,Cafe Porana,-36.782692,174.7410059,"53 Porana Road, Wairau Valley, Auckland 0627, New Zealand","cafe,establishment,food,point_of_interest",4.8,12.0,,,True,cafe in Auckland,restaurant
ChIJ85DZyo07DW0RexnR3fM7Zdo,Acafe (BlueSong) Coffee & Mocktails,-36.7402466,174.7217283,"6/4 Arrenway Drive, Rosedale, Auckland 0632, New Zealand","cafe,establishment,food,point_of_interest,store",4.7,43.0,+64 210 277 8501,https://www.instagram.com/acafe.nz/,True,cafe in Auckland,restaurant
ChIJKRt8N5g5DW0RoXb1RQyvJ3I,K​F Café,-36.7961236,174.7364464,"53 Eban Avenue, Hillcrest, Auckland 0627, New Zealand","cafe,establishment,food,point_of_interest,store",4.8,52.0,+64 20 477 7168,,True,cafe in Auckland,restaurant
ChIJ4wJKOw9IDW0RxGZ_talbaiY,Winona Forever,-36.8527055,174.7789497,"100 Parnell Road, Parnell, Auckland 1052, New Zealand","cafe,establishment,food,point_of_interest",4.3,1268.0,+64 9 974 2796,http://winonaforever.co.nz/,True,cafe in Auckland,restaurant
ChIJC9LERutHDW0RlRbHAoKOBG0,Pilar Cafe & Eatery,-36.8597393,174.7524317,"2 Ponsonby Road, Grey Lynn, Auckland 1011, New Zealand","cafe,establishment,food,point_of_interest",4.9,113.0,+64 9 217 9890,https://instagram.com/pilar.ponsonby?igshid=OGQ5ZDc2ODk2ZA==,True,cafe in Auckland,restaurant
ChIJL7ubf883DW0Rmlu7wck6O9c,Dulcie,-36.8296467,174.8040482,"33 King Edward Parade, Devonport, Auckland 0624, New Zealand","establishment,food,point_of_interest,restaurant",4.7,250.0,+64 9 281 0413,http://www.dulcie.co.nz/,True,cafe in Auckland,restaurant
ChIJRwdYG0pIDW0R_9pvAf8AsxA,ampersand eatery,-36.86307900000001,174.809616,"4/228 Orakei Road, Orakei, Auckland 1071, New Zealand","establishment,food,point_of_interest,restaurant",4.3,756.0,+64 9 522 9503,http://www.ampersandeatery.nz/,True,cafe in Auckland,restaurant
ChIJw1iX4fFHDW0RoGtWoFUdu-o,Odettes Eatery,-36.84972,174.7584076,"90 Wellesley Street West, Auckland Central, Auckland 1010, New Zealand","establishment,food,point_of_interest,restaurant",4.5,1854.0,+64 9 309 0304,http://www.odettes.co.nz/,True,cafe in Auckland,restaurant
ChIJUyv6FN05DW0RPHtHJpg_UpA,Blue Cafe,-36.8072129,174.7423369,"18 Kawana Street, Northcote, Auckland 0627, New Zealand","cafe,establishment,food,point_of_interest",4.6,38.0,+64 9 200 0506,,True,cafe in Auckland,restaurant
ChIJ4-rG-JBHDW0RwZEHOZGSjjc,Little Bird Kitchen,-36.8517462,174.7443671,"Summer Street &, Ponsonby Road, Ponsonby, Auckland 1011, New Zealand","cafe,establishment,food,point_of_interest,restaurant",4.5,1071.0,+64 27 648 4757,http://www.littlebirdorganics.co.nz/,True,cafe in Auckland,restaurant
ChIJ8dblpYlHDW0RHtqh1PRy1Yg,Buoy Cafe & Eatery,-36.8354264,174.743395,"141/151 Westhaven Drive, Westhaven, Auckland 1011, New Zealand","cafe,establishment,food,point_of_interest,restaurant",4.1,837.0,+64 9 378 6667,https://www.buoycafe.co.nz/,True,cafe in Auckland,restaurant
ChIJTURjUo5HDW0R9HCEVqG63HE,Honey Cafe Ponsonby,-36.8469172,174.7448351,"13 Saint Marys Road, St Marys Bay, Auckland 1011, New Zealand","cafe,establishment,food,point_of_interest,restaurant",4.4,547.0,+64 9 360 7260,https://honeycafe.co.nz/ponsonby/,True,cafe in Auckland,restaurant
ChIJFRQdn9E7DW0RgNyNGSKQGIE,Black & Gold Coffee Eatery,-36.7431615,174.7251831,"New Zealand 1/33 Triton Drive, Rosedale, Auckland 0632, New Zealand","cafe,establishment,food,point_of_interest,restaurant",4.5,609.0,+64 9 200 0838,https://www.instagram.com/blackandgoldeatery?igsh=cGsybmUzNmZyZGdp&utm_source=qr,True,cafe in Auckland,restaurant
ChIJK-iKXhBIDW0RhFiZ57QioFU,Rosie Parnell,-36.8523813,174.7861375,"82 Gladstone Road, Parnell, Auckland 1011, New Zealand","establishment,food,point_of_interest,restaurant",4.5,855.0,+64 9 369 1182,http://www.rosieparnell.nz/,True,cafe in Auckland,restaurant
ChIJz79v9cM7DW0RuRFJP_dx5us,Willow Cafe,-36.7358157,174.7154905,"42 Tawa Drive, Albany, Auckland 0632, New Zealand","cafe,establishment,food,point_of_interest,restaurant",4.5,794.0,+64 9 414 6297,https://www.willowcafe.co.nz/,True,cafe in Auckland,restaurant
ChIJF04bNPtHDW0RsXYakRCVdsQ,Scarecrow,-36.8495906,174.7665544,"33 Victoria Street East, Auckland 1010, New Zealand","cafe,establishment,food,grocery_or_supermarket,meal_takeaway,point_of_interest,restaurant,store",4.4,1133.0,+64 9 377 1333,http://scarecrow.co.nz/,True,cafe in Auckland,restaurant
ChIJfS_yGPtHDW0RtLDv_6JBWpw,Mezze Bar,-36.848399,174.7659346,"Durham Street East, Auckland Central, Auckland 1010, New Zealand","cafe,establishment,food,point_of_interest,restaurant",4.5,1783.0,+64 9 307 2029,http://mezzebar.co.nz/,True,cafe in Auckland,restaurant
ChIJh5DnELZHDW0RH-Z0bJcwQL4,Just Like Martha,-36.904878,174.7589917,"985 Mount Eden Road, Three Kings, Auckland 1024, New Zealand","cafe,establishment,food,point_of_interest,restaurant",4.6,1099.0,+64 9 974 4273,http://www.justlikemartha.com/,True,cafe in Auckland,restaurant
ChIJh56_AR0_DW0RjmD_78w3mpk,Fabric Cafe Bistro,-36.7883875,174.671535,"8 Boundary Road, Hobsonville, Auckland 0616, New Zealand","cafe,establishment,food,point_of_interest,restaurant",4.1,1539.0,+64 9 416 8013,https://www.fabriccafebistro.co.nz/,True,cafe in Auckland,restaurant
ChIJG-_aHThJDW0RnBp0JGF_9Fk,Bandung,-36.8534058,174.7789995,"119 Parnell Road, Parnell, Auckland 1052, New Zealand","bar,cafe,establishment,food,point_of_interest,restaurant",4.7,226.0,+64 9 302 1717,http://www.bandung.co.nz/,True,cafe in Auckland,restaurant
ChIJVVXlRpw5DW0RcQ0l4E6yuhI,Temptation Bakehouse & Cafe,-36.7667861,174.735191,"128 Target Road, Wairau Valley, Auckland 0627, New Zealand","cafe,establishment,food,point_of_interest",4.5,193.0,+64 9 218 9890,,True,cafe in Auckland,restaurant
ChIJ26BROdxJDW0RROHKm1Nl8yE,Mission Bay Cafe,-36.8483963,174.8322601,"85 Tamaki Drive, Mission Bay, Auckland 1071, New Zealand","bar,cafe,establishment,food,point_of_interest,restaurant",4.1,1085.0,+64 9 528 0017,http://missionbay.cafe/,True,cafe in Auckland,restaurant
ChIJJdxLbfBHDW0Rh5OtgMO10QI,Sky Tower,-36.848448,174.762191,"Victoria Street West, Auckland Central, Auckland 1010, New Zealand","establishment,point_of_interest,tourist_attraction",4.6,19877.0,+64 9 363 6000,https://www.skycityauckland.co.nz/attractions/sky-tower/,True,tourist attraction in Auckland,tourist attraction
ChIJc15kjNRJDW0RDbcAjDa6gvM,SEA LIFE Kelly Tarlton's Aquarium,-36.8469604,174.8174321,"23 Tamaki Drive, Orakei, Auckland 1071, New Zealand","aquarium,establishment,point_of_interest,tourist_attraction",4.3,8058.0,,https://www.visitsealife.com/auckland/?utm_source=gmb&utm_medium=organic&utm_campaign=yext&utm_content=2,True,tourist attraction in Auckland,tourist attraction
ChIJQ3KyMxJHDW0R7ug-g7xeklY,Auckland Zoo,-36.864113,174.719685,"Motions Rd, Western Springs, Auckland 1022, New Zealand","establishment,point_of_interest,tourist_attraction,zoo",4.5,15852.0,+64 9 360 3805,http://www.aucklandzoo.co.nz/,True,tourist attraction in Auckland,tourist attraction
ChIJgakB8ApIDW0R8MKcJGLvAA8,Auckland Domain,-36.858931,174.7754857,"Park Road, Parnell, Auckland 1010, New Zealand","establishment,park,point_of_interest,tourist_attraction",4.7,12558.0,+64 9 301 0101,https://www.aucklandcouncil.govt.nz/parks-recreation/Pages/park-details.aspx?Location=126,True,tourist attraction in Auckland,tourist attraction
ChIJ7d-YpZBIDW0R0NKcJGLvAA8,Cornwall Park,-36.8974467,174.7843076,"Green Lane West, Epsom, Auckland 1051, New Zealand","establishment,park,point_of_interest,tourist_attraction",4.8,10383.0,+64 9 630 8485,https://cornwallpark.co.nz/,True,tourist attraction in Auckland,tourist attraction
ChIJoQT0pfxHDW0REvz7PfHIBhE,Albert Park,-36.8506426,174.7678881,"33-43 Princes Street, Auckland Central, Auckland 1010, New Zealand","establishment,park,point_of_interest,tourist_attraction",4.6,4490.0,+64 9 301 0101,https://www.aucklandcouncil.govt.nz/parks-recreation/Pages/park-details.aspx?Location=169,True,tourist attraction in Auckland,tourist attraction
ChIJbUgSLvtHDW0RFXKLUva-kD4,Auckland Art Gallery,-36.851354,174.766237,"Wellesley Street East, Auckland Central, Auckland 1010, New Zealand","art_gallery,establishment,museum,point_of_interest,tourist_attraction",4.6,6061.0,+64 9 379 1349,https://www.aucklandartgallery.com/,True,tourist attraction in Auckland,tourist attraction
ChIJDZSXbvBHDW0RTfnJNyKiMJI,AJ Hackett Auckland SkyJump & SkyWalk,-36.8484743,174.7623761,"72 Victoria Street West, Auckland Central, Auckland 1141, New Zealand","establishment,point_of_interest,tourist_attraction",4.9,824.0,+64 800 759 925,https://www.bungy.co.nz/auckland/sky-tower/?utm_source=google&utm_medium=gmb&utm_campaign=akl-skyjump-skywalk,True,tourist attraction in Auckland,tourist attraction
ChIJ0zMb3ghHDW0RrhPFWmZLZcU,MOTAT Museum of Transport and Technology,-36.867818,174.7269355,"805 Great North Road, Western Springs, Auckland 1022, New Zealand","establishment,museum,point_of_interest,tourist_attraction",4.5,4431.0,+64 9 815 5800,https://www.motat.nz/,True,tourist attraction in Auckland,tourist attraction
ChIJ9WEub-VHDW0RQ1VRwQTaNOg,Odyssey Sensory Maze Auckland,-36.85156,174.763906,"Lower Basement Metro Centre 291/297 Queen Street, Auckland Central, Auckland 1010, New Zealand","establishment,point_of_interest,tourist_attraction",4.3,794.0,+64 9 365 1145,http://www.odysseum.co.nz/,True,tourist attraction in Auckland,tourist attraction
ChIJxzNHDfVHDW0RZOK5Uhd2cEA,Silo Park,-36.8403392,174.7554946,"Corner Beaumont Street and Jellicoe, Jellicoe Street, Auckland Central, Auckland 1010, New Zealand","establishment,park,point_of_interest,tourist_attraction",4.5,3266.0,,https://www.silopark.co.nz/,True,tourist attraction in Auckland,tourist attraction
ChIJ22AxB_g3DW0RQTEjCURebc8,Cyril Bassett VC Lookout,-36.829114,174.77344,"87 Stanley Point Road, Stanley Point, Auckland 0624, New Zealand","establishment,point_of_interest,tourist_attraction",4.5,286.0,+64 9 301 0101,https://www.aucklandcouncil.govt.nz/parks-recreation/Pages/default.aspx,True,tourist attraction in Auckland,tourist attraction
ChIJX80yWKBIDW0RIo64FCHSDlQ,Stardome Observatory & Planetarium,-36.9060083,174.7770694,"670 Manukau Road, Epsom, Auckland 1023, New Zealand","establishment,movie_theater,museum,point_of_interest,store,tourist_attraction",4.5,488.0,+64 9 624 1246,http://www.stardome.org.nz/,True,tourist attraction in Auckland,tourist attraction
ChIJFSuLDIBHDW0R81J0b2iDOeQ,Wētā Workshop Unleashed,-36.8491199,174.7623749,"Convention Centre Level 5/88 Federal Street, Auckland Central, Auckland 1010, New Zealand","establishment,point_of_interest,tourist_attraction",4.8,1783.0,+64 4 909 4035,https://www.wetaworkshop.com/tours/auckland,True,tourist attraction in Auckland,tourist attraction
ChIJV4daZIZHDW0R1WpDPiVXAqU,AJ Hackett Auckland Bridge Bungy & Climb,-36.83576190000001,174.7417878,"105 Curran Street, Westhaven Reserve, Herne Bay, Auckland 1011, New Zealand","establishment,point_of_interest,tourist_attraction",4.8,1316.0,+64 800 286 4958,https://www.bungy.co.nz/auckland/auckland-bridge/?utm_source=google&utm_medium=gmb&utm_campaign=akl-bridge,True,tourist attraction in Auckland,tourist attraction
ChIJ8fLvH_NHDW0RgL-cJGLvAA8,Victoria Park,-36.84691979999999,174.754178,"203-271 Victoria Street West, Auckland Central, Auckland 1010, New Zealand","establishment,park,point_of_interest,tourist_attraction",4.5,4109.0,+64 9 301 0101,https://www.aucklandcouncil.govt.nz/parks-recreation/Pages/park-details.aspx?Location=70,True,tourist attraction in Auckland,tourist attraction
ChIJWQgV_9lJDW0RWpJWPT_Agsc,Bastion Point,-36.8470644,174.8256889,"19 Hapimana Street, Orakei, Auckland 1071, New Zealand","establishment,park,point_of_interest,tourist_attraction",4.6,1486.0,+64 9 301 0101,https://www.aucklandcouncil.govt.nz/parks-recreation/Pages/default.aspx,True,tourist attraction in Auckland,tourist attraction
ChIJCQ6TugpIDW0RU_XfsaBVC0E,Domain Wintergardens,-36.86024030000001,174.7740933,"Wintergarden Road, Parnell, Auckland 1010, New Zealand","establishment,park,point_of_interest,tourist_attraction",4.7,3919.0,+64 9 301 0101,,True,tourist attraction in Auckland,tourist attraction
ChIJ9yApKU5HDW0RLeVv3Iojaeg,All Blacks Experience,-36.8490997,174.7623972,"Level 4/88 Federal Street, Auckland Central, Auckland 1010, New Zealand","establishment,point_of_interest,tourist_attraction",4.8,701.0,+64 9 281 0621,https://www.experienceallblacks.com/,True,tourist attraction in Auckland,tourist attraction
ChIJq6qqavdHDW0RzxmLTgjbErM,Viaduct Lookout,-36.8428998,174.763526,"Auckland Central, Auckland 1010, New Zealand","establishment,point_of_interest,tourist_attraction",4.6,195.0,+64 9 373 4141,http://viaduct.co.nz/,True,tourist attraction in Auckland,tourist attraction
ChIJ6TyltPhHDW0RVnXC3nOHDDU,Auckland Waterfront,-36.8402997,174.768064,"Queens Wharf, Auckland, 1010, Auckland Central, Auckland 1010, New Zealand","establishment,point_of_interest,tourist_attraction",4.6,142.0,+64 20 4112 9861,https://www.aucklandlive.co.nz/the-cloud,False,tourist attraction in Auckland,tourist attraction
ChIJrSXsOEVHDW0RdxYZ9SQZfZY,Odysseum Auckland,-36.8517356,174.7635427,"Lower Basement Level Metro Centre 291/297 Queen Street, Auckland City, Auckland 1010, New Zealand","establishment,point_of_interest,tourist_attraction",4.3,15.0,,http://www.odysseum.co.nz/,True,tourist attraction in Auckland,tourist attraction
ChIJn0svh-9HDW0RMIBTBUuDdjg,Aotea Square,-36.8523442,174.7631465,"291-297 Queen Street, Auckland Central, Auckland 1010, New Zealand","establishment,point_of_interest,tourist_attraction",4.4,6418.0,+64 9 309 2677,https://www.aucklandlive.co.nz/venue/aotea-square,True,tourist attraction in Auckland,tourist attraction
ChIJAZar4mpHDW0R4UgaQyXC8a4,Weta Cave,-36.8490995,174.7623932,"Level 5/88 Federal Street, Auckland Central, Auckland 1010, New Zealand","establishment,point_of_interest,tourist_attraction",4.5,71.0,,http://tours.wetaworkshop.com/,True,tourist attraction in Auckland,tourist attraction
ChIJ____T8w3DW0RVNux8PhmCAQ,Maungauika / North Head Historic Reserve,-36.8272011,174.8103852,"18 Takarunga Road, Devonport, Auckland 0624, New Zealand","establishment,park,point_of_interest,tourist_attraction",4.7,1662.0,,https://www.aucklandcouncil.govt.nz/parks-recreation/Pages/park-details.aspx?Location=1402,True,tourist attraction in Auckland,tourist attraction
ChIJaTKMUvxHDW0RZmeFD2WGjRI,Emily Place Reserve,-36.8468611,174.7705428,"38/62 Emily Place, Auckland Central, Auckland 1010, New Zealand","establishment,park,point_of_interest,tourist_attraction",4.5,141.0,,,True,tourist attraction in Auckland,tourist attraction
ChIJgRx2tls3DW0RsnPYP_y8M0k,Secret Cove,-36.8269116,174.7740944,"60A Stanley Point Road, Stanley Point, Auckland 0624, New Zealand","establishment,point_of_interest,tourist_attraction",4.6,34.0,,,False,tourist attraction in Auckland,tourist attraction
ChIJfz8qGU1HDW0Rn9tGD3HK_b8,Quay Street Waterfront,-36.8427867,174.7659598,"Auckland Central, Auckland 1010, New Zealand","establishment,point_of_interest,tourist_attraction",4.5,19.0,,,True,tourist attraction in Auckland,tourist attraction
ChIJXUu_XSyuOG0RrOW8A0zEPEk,Northern Explorer: Scenic Train Auckland - Wellington,-36.8484896,174.7811849,"66 The Strand, Parnell, Auckland 1010, New Zealand","cafe,establishment,food,point_of_interest,tourist_attraction",4.2,180.0,+64 800 872 467,https://www.greatjourneysnz.com/tours-and-trains/scenic-trains/northern-explorer-train/?utm_source=google&utm_medium=organic&utm_campaign=trains&utm_term=gmb,True,tourist attraction in Auckland,tourist attraction
ChIJ4xsZP_lHDW0RCyZMr87UG6s,Ferry Building,-36.8429818,174.7669157,"107 Quay Street, Auckland Central, Auckland 1010, New Zealand","establishment,point_of_interest,tourist_attraction",4.4,1340.0,+64 800 385 5377,https://nzhistory.govt.nz/media/photo/auckland-ferry-building-and-tees,True,tourist attraction in Auckland,tourist attraction
ChIJN8KgBdpJDW0RIL-cJGLvAA8,Michael Joseph Savage Memorial Park,-36.8483964,174.8263074,"19 Hapimana Street, Orakei, Auckland 1071, New Zealand","establishment,park,point_of_interest,tourist_attraction",4.6,2124.0,+64 9 301 0101,https://www.aucklandcouncil.govt.nz/parks-recreation/Pages/park-details.aspx?Location=198,True,tourist attraction in Auckland,tourist attraction
ChIJY2BKE_BHDW0R9g9dYJsRaN4,SkyCity Auckland,-36.8489952,174.7620186,"Corner Victoria and, Federal Street, Auckland Central, Auckland 1010, New Zealand","casino,establishment,point_of_interest,tourist_attraction",4.4,4599.0,+64 9 363 6000,https://www.skycityauckland.co.nz/,True,tourist attraction in Auckland,tourist attraction
ChIJ9QljzwtHDW0RyxKx_YIepkA,Skyline View,-36.8439901,174.7583095,"414/83 Halsey Street, Auckland Central, Auckland 1010, New Zealand","establishment,point_of_interest,tourist_attraction",4.7,6.0,,,False,tourist attraction in Auckland,tourist attraction
ChIJieHN9EBHDW0RxYPM2gFU6wA,Queen Street,-36.8508852,174.7645088,"Level 20/191 Queen Street, Auckland Central, Auckland 1010, New Zealand","establishment,point_of_interest,tourist_attraction",4.3,58.0,,,True,tourist attraction in Auckland,tourist attraction
ChIJNxWWLjlHDW0R1hCX9KGcQGQ,Auckland Midtown Self-Guided Walking Tour,-36.8463598,174.7661069,"86 Queen Street, Auckland Central, Auckland 1010, New Zealand","establishment,point_of_interest,tourist_attraction",5.0,3.0,,,False,tourist attraction in Auckland,tourist attraction
ChIJuzfvS_g5DW0RN5OurbBL858,Kennedy Park,-36.75651879999999,174.7668966,"Beach Road, Castor Bay, Auckland 0620, New Zealand","establishment,park,point_of_interest,tourist_attraction",4.6,672.0,+64 9 301 0101,https://www.aucklandcouncil.govt.nz/parks-recreation/Pages/park-details.aspx?Location=471,True,tourist attraction in Auckland,tourist attraction
ChIJQ9j2kwxHDW0R6nvWQ0rSivU,Auckland Uptown Walk,-36.849111,174.765119,"20 Victoria Street West, Auckland Central, Auckland 1010, New Zealand","establishment,point_of_interest,tourist_attraction",4.7,6.0,,,False,tourist attraction in Auckland,tourist attraction
ChIJsVoLrglHDW0RiyzvONQhR4s,Western Springs Park,-36.8644795,174.727963,"731 Great North Road, Western Springs, Auckland 1022, New Zealand","establishment,park,point_of_interest,tourist_attraction",4.6,1738.0,+64 9 301 0101,https://www.aucklandcouncil.govt.nz/parks-recreation/Pages/park-details.aspx?Location=146,True,tourist attraction in Auckland,tourist attraction
ChIJg3rg49NHDW0RjK_GnZxF-x4,Eden Garden,-36.877031,174.767141,"24 Omana Avenue, Epsom, Auckland 1023, New Zealand","establishment,park,point_of_interest,tourist_attraction",4.5,768.0,+64 9 638 8395,http://www.edengarden.co.nz/,True,tourist attraction in Auckland,tourist attraction
ChIJny3VA9lGDW0R6ujpzkOKNvc,Oakley Creek Waterfall,-36.8821602,174.7031555,"1520 Great North Road, Waterview, Auckland 1026, New Zealand","establishment,park,point_of_interest,tourist_attraction",4.2,993.0,+64 9 301 0101,http://temp.aucklandcouncil.govt.nz/EN/parksfacilities/parksall/Pages/home2.aspx,True,tourist attraction in Auckland,tourist attraction
ChIJAVAQjaZHDW0RJCEnimTLq8w,Mount Eden Boardwalk,-36.8774158,174.7634503,"Summit Road, Mount Eden, Auckland 1024, New Zealand","establishment,point_of_interest,tourist_attraction",4.8,155.0,,,False,tourist attraction in Auckland,tourist attraction
ChIJ8weic9FHDW0RwMucJGLvAA8,Maungawhau / Mount Eden,-36.8774335,174.7642824,"250 Mount Eden Road, Mount Eden, Auckland 1024, New Zealand","establishment,park,point_of_interest,tourist_attraction",4.7,7902.0,+64 9 301 0101,https://www.aucklandcouncil.govt.nz/parks-recreation/Pages/park-details.aspx?Location=58,True,tourist attraction in Auckland,tourist attraction
ChIJ3Z5J7vBHDW0RBtZoG66kyNg,Wynyard Quarter,-36.8409877,174.7586584,"82 Wyndham Street, Auckland Central, Auckland 1010, New Zealand","establishment,point_of_interest,tourist_attraction",5.0,23.0,,https://www.wynyard-quarter.co.nz/,False,tourist attraction in Auckland,tourist attraction
ChIJo2yzot03DW0RJ6bUgwQgjYs,Magic Broomstick Segway Tours,-36.8333836,174.7957631,"Devonport Ferry Terminal 1 Queens Parade, Devonport, Auckland 0624, New Zealand","establishment,point_of_interest,tourist_attraction,travel_agency",4.9,75.0,+64 27 339 3155,http://www.magicbroomsticktours.co.nz/,False,tourist attraction in Auckland,tourist attraction
ChIJ-yX6PKFHDW0RzSkH6hL8Afw,Doom Room,-36.8514537,174.7638438,"Lower Basement Metro Centre 291-297 Queen Street, Auckland Central, Auckland 1010, New Zealand","establishment,point_of_interest,tourist_attraction",4.1,26.0,+64 9 365 1145,https://www.odysseum.co.nz/,True,tourist attraction in Auckland,tourist attraction
ChIJYT35NJI4DW0RHjHOzSZi5cM,Chelsea Estate Heritage Park,-36.8190358,174.7204528,"Colonial Road, Birkenhead, Auckland 0626, New Zealand","establishment,park,point_of_interest,tourist_attraction",4.5,543.0,+64 9 301 0101,https://www.aucklandcouncil.govt.nz/parks-recreation/Pages/park-details.aspx?Location=458,True,tourist attraction in Auckland,tourist attraction
ChIJh38sC7JHDW0RxqN-4evsP1M,Halsey Street Wharf,-36.8395298,174.7601065,"161 Halsey Street, Auckland Central, Auckland 1010, New Zealand","establishment,point_of_interest,tourist_attraction",4.8,19.0,,,True,tourist attraction in Auckland,tourist attraction
ChIJE-vYDC5IDW0RBegR86JUOQ4,Pacific Mermaid Cruises,-36.849079,174.808434,"Berth C45, c/o Orakei Marina Office D Pier, 12 Tamaki Drive, Auckland 1745, New Zealand","establishment,point_of_interest,tourist_attraction",4.7,7.0,+64 210 278 6757,http://www.pacificmermaid.co.nz/,False,tourist attraction in Auckland,tourist attraction
ChIJ47tIEa05DW0Rz9RoH8WCgeA,Harbour Bridge View,-36.835419,174.7463773,"181 Westhaven Drive, Westhaven, Auckland 1011, New Zealand","establishment,point_of_interest,tourist_attraction",4.8,311.0,,,True,tourist attraction in Auckland,tourist attraction
ChIJ0UKoaiNJDW0RxFyRuuKHlLc,Urban Sanctuary,-36.8526523,174.8059576,"Tamaki Drive, Ngapipi Road, Orakei, Auckland 1071, New Zealand","establishment,point_of_interest,tourist_attraction",4.5,8.0,,,True,tourist attraction in Auckland,tourist attraction
ChIJsSDtiBpIDW0RQMCcJGLvAA8,Dove Myer Robinson Park (Parnell Rose Garden),-36.8497563,174.7865304,"85-87 Gladstone Road, Parnell, Auckland 1052, New Zealand","establishment,park,point_of_interest,tourist_attraction",4.6,2444.0,+64 9 301 0101,https://www.aucklandcouncil.govt.nz/parks-recreation/Pages/park-details.aspx?Location=150,True,tourist attraction in Auckland,tourist attraction
ChIJV9clZgBHDW0RCuV22IA_-BI,Eastern Viaduct,-36.8422221,174.7630021,"Eastern Viaduct, Auckland Central, Auckland 1010, New Zealand","establishment,point_of_interest,tourist_attraction",4.7,7.0,,,False,tourist attraction in Auckland,tourist attraction
ChIJKeyrcQA_DW0R8UCtEHoJGFU,Island Bay Wharf,-36.8104457,174.6883863,"134 Island Bay Road, Beach Haven, Auckland 0626, New Zealand","establishment,point_of_interest,tourist_attraction",4.3,8.0,,,True,tourist attraction in Auckland,tourist attraction
ChIJQ33M55lIDW0Rx1dTYJK1ZWw,Maungakiekie / One Tree Hill,-36.9018573,174.7813942,"670 Manukau Road, One Tree Hill, Auckland 1051, New Zealand","establishment,point_of_interest,tourist_attraction",4.7,3338.0,+64 9 301 0101,https://www.aucklandcouncil.govt.nz/parks-recreation/Pages/park-details.aspx?Location=156,True,tourist attraction in Auckland,tourist attraction
ChIJ87LEgRxHDW0R2-v5HchZvHQ,Maoli - Local Tours,-36.848098,174.7697003,"Shed 19 Princes Street, Auckland Central, Auckland 1010, New Zealand","establishment,point_of_interest,tourist_attraction",,,+64 210 823 8372,http://www.maoli.co.nz/,False,tourist attraction in Auckland,tourist attraction
ChIJp1-w0cxHDW0RBMSMFb6xDQY,Wynyard Basin,-36.8389274,174.7589884,"90 Brigham Street, Auckland Central, Auckland 1010, New Zealand","establishment,point_of_interest,tourist_attraction",4.8,6.0,,,True,tourist attraction in Auckland,tourist attraction
ChIJ5-ZnPABHDW0RAkDjFGVDsCE,Gantry,-36.8396868,174.7551599,"26 Hamer Street, Auckland Central, Auckland 1010, New Zealand","establishment,point_of_interest,tourist_attraction",5.0,5.0,,,False,tourist attraction in Auckland,tourist attraction
ChIJB5D1KXxJDW0Rsk8MobDJutM,Sea View Bridge,-36.84367,174.815608,"18 Tamaki Dr, Okahu Street, Orakei, Auckland 1071, New Zealand","establishment,point_of_interest,tourist_attraction",4.6,32.0,,,True,tourist attraction in Auckland,tourist attraction
ChIJW7Idj2BGDW0RINqcJGLvAA8,War Memorial Park,-36.9041071,174.735379,"13 May Road, Mount Roskill, Auckland 1041, New Zealand","establishment,park,point_of_interest,tourist_attraction",4.5,1413.0,+64 9 301 0101,https://www.aucklandcouncil.govt.nz/parks-recreation/Pages/park-details.aspx?Location=16,True,tourist attraction in Auckland,tourist attraction
ChIJs8ij3Kc5DW0Rn6MlXnhrr9g,Marlborough Park,-36.7836968,174.7333288,"13 Chartwell Avenue, Glenfield, Auckland 0629, New Zealand","establishment,park,point_of_interest",4.5,475.0,+64 9 301 0101,https://www.aucklandcouncil.govt.nz/parks-recreation/Pages/park-details.aspx?Location=496,True,park in Auckland,park
ChIJu_rXJws5DW0RYKucJGLvAA8,Normanton Reserve,-36.7737175,174.7289358,"9 Normanton Street, Glenfield, Auckland 0629, New Zealand","establishment,park,point_of_interest",4.3,331.0,+64 9 301 0101,https://www.aucklandcouncil.govt.nz/parks-recreation/Pages/park-details.aspx?Location=694,True,park in Auckland,park
ChIJv9l0iYc5DW0RbAJWjb9UEJ8,Kaipatiki Park,-36.7812711,174.7161596,"5092173, Glenfield, Auckland 0629, New Zealand","establishment,park,point_of_interest",4.3,101.0,,,True,park in Auckland,park
ChIJBzWFxZRHDW0RsMOcJGLvAA8,Western Park,-36.8565643,174.7518897,"5/7 Howe Street, Freemans Bay, Auckland 1011, New Zealand","establishment,park,point_of_interest,tourist_attraction",4.6,1278.0,+64 9 301 0101,https://www.aucklandcouncil.govt.nz/parks-recreation/Pages/park-details.aspx?Location=151,True,park in Auckland,tourist attraction
ChIJ9amirDA5DW0Rjo74tXYI8Kk,Manuka Reserve,-36.7778346,174.6995507,"Manuka Road, Bayview, Auckland 0629, New Zealand","establishment,park,point_of_interest",4.5,77.0,,https://www.aucklandcouncil.govt.nz/parks-recreation/Pages/park-details.aspx?Location=712,True,park in Auckland,park
ChIJQe7cldQ-DW0RYK-cJGLvAA8,Shepherds Park,-36.7873262,174.6878594,"31/35 Cresta Avenue, Beach Haven, Auckland 0626, New Zealand","establishment,park,point_of_interest,tourist_attraction",4.5,895.0,+64 9 301 0101,https://www.aucklandcouncil.govt.nz/parks-recreation/Pages/park-details.aspx?Location=423,True,park in Auckland,tourist attraction
ChIJE-39wF85DW0RZjMe0w1OzQ8,Sunnynook Park,-36.7574633,174.740678,"Sunnynook Road, Sunnynook, Auckland 0620, New Zealand","establishment,park,point_of_interest",4.6,328.0,,https://www.aucklandcouncil.govt.nz/parks-recreation/Pages/park-details.aspx?Location=476,True,park in Auckland,park
ChIJvcgCRg5HDW0RkMecJGLvAA8,Western Springs Lakeside Park,-36.8656386,174.723052,"99 Motions Road, Western Springs, Auckland 1022, New Zealand","establishment,park,point_of_interest",4.6,1286.0,+64 9 301 0101,https://www.aucklandcouncil.govt.nz/parks-recreation/Pages/park-details.aspx?Location=146,True,park in Auckland,park
ChIJafhDBURHDW0RkMGcJGLvAA8,Coyle Park,-36.8517471,174.7044563,"528 Point Chevalier Road, Point Chevalier, Auckland 1022, New Zealand","establishment,park,point_of_interest,tourist_attraction",4.6,1816.0,+64 9 301 0101,https://www.aucklandcouncil.govt.nz/parks-recreation/Pages/park-details.aspx?Location=21,True,park in Auckland,tourist attraction
ChIJP7cqIwo5DW0R7xiXhZONOLI,Diana Reserve,-36.7778484,174.7300829,"Glenfield, Auckland 0627, New Zealand","establishment,park,point_of_interest",4.3,38.0,,http://www.aucklandcouncil.govt.nz/,True,park in Auckland,park
ChIJhaxK9RE5DW0RdfUtACyrOho,Lancelot Reserve,-36.7781449,174.7198017,"Glenfield, Auckland 0629, New Zealand","establishment,park,point_of_interest",4.5,19.0,,http://www.aucklandcouncil.govt.nz/,True,park in Auckland,park
ChIJ-Xaj2Tg5DW0RcKucJGLvAA8,Lynn Reserve,-36.7734498,174.7031807,"107 Lynn Road, Bayview, Auckland 0629, New Zealand","establishment,park,point_of_interest,tourist_attraction",4.5,179.0,+64 9 301 0101,http://www.aucklandcity.govt.nz/whatson/places/parksonline/detail2.asp?pParkId=14229,True,park in Auckland,tourist attraction
ChIJ7zzptaxHDW0RoM6cJGLvAA8,Gribblehirst Park,-36.8804021,174.7378755,"225 Sandringham Road, Sandringham, Auckland 1025, New Zealand","establishment,park,point_of_interest",4.3,390.0,+64 9 301 0101,https://www.aucklandcouncil.govt.nz/parks-recreation/Pages/park-details.aspx?Location=173,True,park in Auckland,park
ChIJO3bEEoI5DW0ROzKhdelDrjA,Witheford Reserve,-36.7796942,174.711563,"Kaipatiki Road, Glenfield, Auckland 0629, New Zealand","establishment,park,point_of_interest",4.4,11.0,,https://www.aucklandcouncil.govt.nz/parks-recreation/get-outdoors/aklpaths/Pages/path-detail.aspx?ItemId=371,True,park in Auckland,park
ChIJAeAhz-hHDW0RYMOcJGLvAA8,Myers Park,-36.855229,174.7612847,"72 Greys Avenue, Auckland Central, Auckland 1010, New Zealand","establishment,park,point_of_interest",4.4,990.0,+64 9 301 0101,https://www.aucklandcouncil.govt.nz/parks-recreation/Pages/park-details.aspx?Location=104,True,park in Auckland,park
ChIJV5Ox5h45DW0RhmHF3uZzaw0,Windy Ridge Reserve,-36.7901615,174.7136204,"29 Valley View Road, Glenfield, Auckland 0629, New Zealand","establishment,park,point_of_interest",4.6,30.0,,,True,park in Auckland,park
ChIJzX2Jg6JHDW0RcMWcJGLvAA8,Grey Lynn Park,-36.8604093,174.7393964,"Dryden Street, Grey Lynn, Auckland 1021, New Zealand","establishment,park,point_of_interest,tourist_attraction",4.6,1196.0,+64 9 886 9743,https://www.aucklandcouncil.govt.nz/parks-recreation/Pages/park-details.aspx?Location=47,True,park in Auckland,tourist attraction
ChIJa96J7Kg5DW0RXL7hEbSita8,McFetridge Park,-36.7857913,174.7351476,"111 Archers Road, Glenfield, Auckland 0627, New Zealand","establishment,park,point_of_interest",4.3,64.0,+64 9 301 0101,https://www.aucklandcouncil.govt.nz/parks-recreation/Pages/park-details.aspx?Location=498,True,park in Auckland,park
ChIJ41P-JQA5DW0RotmlKZ-V5fI,Bonnie's Park,-36.7727475,174.7169206,"Bayview, Auckland 0629, New Zealand","establishment,park,point_of_interest",4.8,4.0,,,True,park in Auckland,park
ChIJu3lJxRw6DW0RSQX9avW6ctA,Centennial Park,-36.7514579,174.7581264,"184 Beach Road, Campbells Bay, Auckland 0630, New Zealand","establishment,park,point_of_interest,tourist_attraction",4.6,251.0,+64 9 301 0101,https://www.aucklandcouncil.govt.nz/parks-recreation/Pages/park-details.aspx?Location=515,True,park in Auckland,tourist attraction
ChIJl4GTOM86DW0RoJ-cJGLvAA8,Long Bay Regional Park,-36.689543,174.750982,"Beach Road, Long Bay, Auckland 0792, New Zealand","establishment,park,point_of_interest,tourist_attraction",4.7,4821.0,+64 9 301 0101,https://www.aucklandcouncil.govt.nz/parks-recreation/Pages/park-details.aspx?Location=215,True,park in Auckland,tourist attraction
ChIJNUZU2EtGDW0RYNGcJGLvAA8,Potters Park,-36.8864889,174.7488486,"173 Balmoral Road, Mount Eden, Auckland 1024, New Zealand","establishment,park,point_of_interest,tourist_attraction",4.6,1836.0,+64 9 301 0101,https://www.aucklandcouncil.govt.nz/parks-recreation/Pages/park-details.aspx?Location=111,True,park in Auckland,tourist attraction
ChIJr2Ljbws5DW0Rl_riZ2NsP5A,Monarch Park,-36.7983105,174.7299122,"4940565, Hillcrest, Hillcrest, Auckland 0627, New Zealand","establishment,park,point_of_interest",4.5,59.0,,,True,park in Auckland,park
ChIJl1FOiSZHDW0RFW7YufJ9k4Y,Waterview Reserve (Oakley Park),-36.8749228,174.7024964,"31 Herdman Street, Waterview, Auckland 1026, New Zealand","establishment,park,point_of_interest",4.6,702.0,,https://www.aucklandcouncil.govt.nz/parks-recreation/Pages/park-details.aspx?Location=113,True,park in Auckland,park
ChIJG0dfe6M5DW0RBfCKumOG_bM,Locket Reserve,-36.778447,174.7398813,"Glenfield, Auckland 0627, New Zealand","establishment,park,point_of_interest",3.8,6.0,,,True,park in Auckland,park
ChIJaeppQYlADW0RfMdP9SpT3uI,Harbourview - Orangihina Park,-36.8493584,174.6529013,"465 Te Atatu Road, Te Atatū Peninsula, Auckland 0610, New Zealand","establishment,park,point_of_interest,tourist_attraction",4.5,667.0,+64 9 301 0101,https://www.aucklandcouncil.govt.nz/parks-recreation/Pages/park-details.aspx?Location=663,True,park in Auckland,tourist attraction
ChIJvSkOcOYuDW0REJucJGLvAA8,Shakespear Regional Park,-36.606696,174.8246213,"1501 Whangaparaoa Road, Army Bay, Auckland 0930, New Zealand","establishment,park,point_of_interest,tourist_attraction",4.8,4081.0,+64 9 366 2000,https://www.aucklandcouncil.govt.nz/parks-recreation/Pages/park-details.aspx?Location=226,True,park in Auckland,tourist attraction
ChIJjwkOlYxFDW0RcOycJGLvAA8,Ambury Regional Park,-36.9480271,174.7660618,"66 Wellesley Road, Māngere Bridge, Auckland 2022, New Zealand","establishment,park,point_of_interest,tourist_attraction",4.7,2841.0,+64 9 301 0101,https://www.aucklandcouncil.govt.nz/parks-recreation/Pages/park-details.aspx?Location=202,True,park in Auckland,tourist attraction
ChIJPdJ_XPRHDW0RKSxQprHbTI8,Daldy Street Park,-36.8424491,174.7553957,"Wynyard Quarter Daldy Street, Auckland Central, Auckland 1010, New Zealand","establishment,park,point_of_interest,tourist_attraction",4.3,209.0,+64 9 336 8820,,True,park in Auckland,tourist attraction
ChIJk8o36LJGDW0REN6cJGLvAA8,Olympic Park,-36.9092104,174.6917256,"Portage Road, New Lynn, Auckland 0600, New Zealand","establishment,park,point_of_interest,tourist_attraction",4.4,1564.0,+64 9 301 0101,https://www.aucklandcouncil.govt.nz/parks-recreation/Pages/park-details.aspx?Location=681,True,park in Auckland,tourist attraction
ChIJx34XTmQ5DW0RsWfe6I5JvfY,Unsworth Reserve,-36.75882259999999,174.7175152,"Unsworth Heights, Auckland 0632, New Zealand","establishment,park,point_of_interest",4.7,86.0,,https://www.aucklandcouncil.govt.nz/parks-recreation/Pages/park-details.aspx?Location=2178,True,park in Auckland,park
ChIJ-2ld64dHDW0RzODBnkJtb4w,Point Erin Park,-36.8396472,174.7411783,"94 Shelly Beach Road, Westhaven, Auckland 1011, New Zealand","establishment,park,point_of_interest,tourist_attraction",4.4,297.0,+64 9 301 0101,https://www.aucklandcouncil.govt.nz/parks-recreation/Pages/park-details.aspx?Location=171,True,park in Auckland,tourist attraction
ChIJF4ULHgdHDW0RkMucJGLvAA8,Fowlds Park,-36.8735834,174.7288647,"50 Western Springs Road, Mount Albert, Auckland 1022, New Zealand","establishment,park,point_of_interest",4.4,408.0,+64 9 301 0101,https://www.aucklandcouncil.govt.nz/parks-recreation/Pages/park-details.aspx?Location=175,True,park in Auckland,park
ChIJZ361smw5DW0RfnxtbjVw3HE,Elliott Reserve,-36.7723853,174.7166988,"Bayview, Auckland 0629, New Zealand","establishment,park,point_of_interest",4.3,10.0,,,False,park in Auckland,park
ChIJv-WYulJADW0R5JCjxemVkOw,Tui Glen Reserve,-36.87338769999999,174.6359339,"2 Claude Brookes Drive, Henderson, Auckland 0612, New Zealand","establishment,park,point_of_interest,tourist_attraction",4.5,1254.0,+64 9 301 0101,https://www.aucklandcouncil.govt.nz/parks-recreation/Pages/park-details.aspx?Location=672,True,park in Auckland,tourist attraction
ChIJMcZxfmE4DW0RdIZw2Y4mZLg,Hinemoa Park,-36.8220064,174.7347371,"Hinemoa Street, Birkenhead, Auckland 0626, New Zealand","establishment,park,point_of_interest",4.5,69.0,,https://www.aucklandcouncil.govt.nz/parks-recreation/Pages/park-details.aspx?Location=504#playgrounds,False,park in Auckland,park
ChIJm_MktDtHDW0RQMicJGLvAA8,Walker Park,-36.8649199,174.7031647,"7/51 Walker Road, Point Chevalier, Auckland 1022, New Zealand","establishment,park,point_of_interest",4.3,278.0,+64 9 301 0101,https://www.aucklandcouncil.govt.nz/parks-recreation/Pages/park-details.aspx?Location=5,True,park in Auckland,park
ChIJHVhw56ZJDW0REM2cJGLvAA8,Waiatarua Reserve,-36.8870012,174.8259604,"98 Abbotts Way, Meadowbank, Auckland 1050, New Zealand","establishment,park,point_of_interest,tourist_attraction",4.5,835.0,+64 9 301 0101,https://www.aucklandcouncil.govt.nz/parks-recreation/Pages/park-details.aspx?Location=89,True,park in Auckland,tourist attraction
ChIJcZxS1tloDW0RhObs5vUD_FQ,Waitakere Ranges Regional Park,-36.952287,174.5288379,"300 Scenic Drive, Nihotupu, Auckland 0604, New Zealand","establishment,park,point_of_interest",4.8,147.0,,https://www.aucklandcouncil.govt.nz/parks-recreation/Pages/park-details.aspx?Location=204,True,park in Auckland,park
ChIJrUWststBDW0RcM2cJGLvAA8,Henderson Park,-36.8783848,174.6251045,"41A Wilsher Crescent, Henderson, Auckland 0612, New Zealand","establishment,park,point_of_interest,tourist_attraction",4.5,635.0,+64 9 301 0101,https://www.aucklandcouncil.govt.nz/parks-recreation/Pages/park-details.aspx?Location=635,True,park in Auckland,tourist attraction
ChIJeay_zHtNDW0RsLWdJGLvAA8,Auckland Botanic Gardens,-37.0128163,174.9077139,"102 Hill Road, The Gardens, Auckland 2105, New Zealand","establishment,park,point_of_interest,tourist_attraction",4.6,9365.0,+64 9 267 1457,http://www.aucklandbotanicgardens.co.nz/,True,park in Auckland,tourist attraction
ChIJMQ2gg9xDDW0R0OecJGLvAA8,Tahurangi / Crum Park,-36.9289856,174.6641019,"52A Hilling Street, Titirangi, Auckland 0604, New Zealand","establishment,park,point_of_interest",4.4,379.0,+64 9 301 0101,https://www.aucklandcouncil.govt.nz/parks-recreation/Pages/park-details.aspx?Location=2647,True,park in Auckland,park
ChIJ_3V2hghKDW0RUL-cJGLvAA8,Glover Park,-36.8470152,174.8678476,"32 Glover Road, St Heliers, Auckland 1071, New Zealand","establishment,park,point_of_interest,tourist_attraction",4.5,429.0,+64 9 301 0101,https://www.aucklandcouncil.govt.nz/parks-recreation/Pages/park-details.aspx?Location=79,True,park in Auckland,tourist attraction
ChIJq8xVy0dJDW0RDrwEDCn_4zA,Sylvia Park Shopping Centre,-36.9172406,174.8418425,"286 Mount Wellington Highway, Mount Wellington, Auckland 1060, New Zealand","establishment,point_of_interest,shopping_mall",4.4,19215.0,+64 9 570 3777,https://www.sylviapark.com/,True,shopping mall in Auckland,shopping mall
ChIJr51ka3dIDW0RO4-xkJrr9Bc,Westfield Newmarket,-36.8707883,174.7768905,"277 Broadway, Newmarket, Auckland 1023, New Zealand","establishment,point_of_interest,shopping_mall",4.3,8778.0,+64 9 978 9400,http://www.westfield.co.nz/newmarket,True,shopping mall in Auckland,shopping mall
ChIJpUDHCIBPDW0RJ6TM6zXb6hE,Mānawa Bay,-36.9959093,174.8015983,"4 Jimmy Ward Crescent, Auckland Airport, Auckland 2022, New Zealand","establishment,point_of_interest,shopping_mall",4.5,1247.0,+64 9 275 7027,https://www.manawabay.co.nz/,True,shopping mall in Auckland,shopping mall
ChIJme7AF1hHDW0RdGdheRij9BI,Commercial Bay,-36.8438848,174.7661305,"7 Queen Street, Auckland Central, Auckland 1010, New Zealand","bar,establishment,food,point_of_interest,restaurant,shopping_mall",4.4,5832.0,+64 27 368 8659,http://www.commercialbay.co.nz/,True,shopping mall in Auckland,shopping mall
ChIJVVVVwQ85DW0R-wP8T8EUd1M,Glenfield Mall,-36.7818523,174.7220778,"Corner Glenfield Road &, Downing Street, Glenfield, Auckland 0629, New Zealand","establishment,point_of_interest,shopping_mall",4.2,5714.0,+64 9 978 9700,http://glenfieldmall.co.nz/,True,shopping mall in Auckland,shopping mall
ChIJsRdro_5HDW0RpFmy0CRiKRE,Britomart,-36.8442592,174.770116,"3 Maritime Building 130 Quay Street, 1150 Shortland Street, Auckland Central, Auckland 1140, New Zealand","establishment,point_of_interest,shopping_mall",4.4,2484.0,+64 9 914 8431,http://britomart.org/,True,shopping mall in Auckland,shopping mall
ChIJV4bKtr1NDW0R3T_lMnWPcw4,Westfield Manukau,-36.9912102,174.8822355,"1 Leyton Way, Manukau City Centre, Auckland 2104, New Zealand","establishment,point_of_interest,shopping_mall",4.2,10128.0,+64 9 978 5300,http://www.westfield.co.nz/manukau,True,shopping mall in Auckland,shopping mall
ChIJUR_iTOVHDW0RLgLAn5Pw3XU,Atrium on Elliott Shopping Centre,-36.84971,174.763715,"21-25 Elliott Street, Auckland Central, Auckland 1010, New Zealand","establishment,food,point_of_interest,shopping_mall",4.1,1684.0,+64 9 375 4960,http://www.atriumonelliott.co.nz/,True,shopping mall in Auckland,shopping mall
ChIJK_Iz35Q7DW0RlHpxoOMpSuA,Westfield Albany,-36.7285422,174.7086681,"219 Don McKinnon Drive, Albany, Auckland 0632, New Zealand","establishment,point_of_interest,shopping_mall",4.3,9464.0,+64 9 925 9200,http://www.westfield.co.nz/albany,True,shopping mall in Auckland,shopping mall
ChIJn5Lz87NBDW0RfrvHekMD2IE,WestCity Waitakere,-36.8809739,174.6327652,"7 Catherine Street, Henderson, Auckland 0612, New Zealand","establishment,point_of_interest,shopping_mall",4.1,5757.0,+64 9 978 6700,https://www.west-city.co.nz/,True,shopping mall in Auckland,shopping mall
ChIJk7N0_OY5DW0R5PcrHutodKI,Milford Shopping Centre,-36.7716401,174.7657584,"24 Milford Road, Milford, Auckland 0620, New Zealand","establishment,point_of_interest,shopping_mall",4.1,2175.0,+64 9 486 1559,http://milfordcentre.co.nz/,True,shopping mall in Auckland,shopping mall
ChIJc8BAZftHDW0RwExZksisVMA,Chancery Square,-36.84798110000001,174.767314,"34 Courthouse Lane, Auckland Central, Auckland 1010, New Zealand","establishment,point_of_interest,shopping_mall",4.3,1910.0,,https://chancerysq.co.nz/,True,shopping mall in Auckland,shopping mall
ChIJre87r9c5DW0RiXznTXFNjVM,Shore City Shopping Centre,-36.7878715,174.7699988,"52/56 Anzac Street, Takapuna, Auckland 0622, New Zealand","establishment,point_of_interest,shopping_mall",3.9,2124.0,+64 9 978 6300,https://www.shore-city.co.nz/?utm_source=Google&utm_medium=places&utm_campaign=googleplaces,True,shopping mall in Auckland,shopping mall
ChIJdbmAZZ5MDW0RVta-mrS-tAE,Botany Town Centre,-36.9334926,174.9133753,"588 Chapel Road, East Tāmaki, Auckland 2016, New Zealand","establishment,point_of_interest,shopping_mall",4.4,8449.0,+64 9 272 3888,http://www.botanytowncentre.co.nz/,True,shopping mall in Auckland,shopping mall
ChIJYZngBVVGDW0Rx5jCQMMsHsE,Westfield St Lukes,-36.8832738,174.7331356,"80 Saint Lukes Road, Mount Albert, Auckland 1025, New Zealand","establishment,point_of_interest,shopping_mall",4.3,10643.0,+64 9 978 6000,http://www.westfield.co.nz/stlukes,True,shopping mall in Auckland,shopping mall
ChIJk3eGMkxBDW0RwaZuUdU4vhg,LynnMall,-36.9076512,174.6859924,"3058 Great North Road, New Lynn, Auckland 0640, New Zealand","establishment,point_of_interest,shopping_mall",4.3,8089.0,+64 9 826 2333,http://www.lynnmall.co.nz/,True,shopping mall in Auckland,shopping mall
ChIJGZiTuoU5DW0Rekr42g5C2d8,Sunnynook Mall,-36.7592981,174.7402558,"Sunnynook, Auckland 0620, New Zealand","establishment,point_of_interest,shopping_mall",4.1,576.0,,,False,shopping mall in Auckland,shopping mall
ChIJh5LAneQ_DW0Rk4E07Q0_L30,NorthWest Shopping Centre,-36.8178005,174.6110421,"1/7 Fred Taylor Drive, Massey, Auckland 0814, New Zealand","establishment,point_of_interest,shopping_mall",4.2,4398.0,+64 508 667 849,http://www.northwestshoppingcentre.co.nz/,True,shopping mall in Auckland,shopping mall
ChIJB2O5u-Q_DW0RBw5FdYRSXXY,Westgate Shopping Centre,-36.8213672,174.6123723,"Fred Taylor Drive, Westgate, Auckland 0657, New Zealand","establishment,point_of_interest,shopping_mall",4.1,4229.0,+64 9 831 0200,http://westgate.kiwi/,True,shopping mall in Auckland,shopping mall
ChIJZc--a-VHDW0RfNekg8bB7Ks,Sky World Indoor Entertainment,-36.8517566,174.7637517,"291-297 Queen Street, Auckland Central, Auckland 1010, New Zealand","establishment,point_of_interest,shopping_mall",4.0,1219.0,+64 9 369 2405,http://www.skyworld.co.nz/,True,shopping mall in Auckland,shopping mall
ChIJRc8gZOs7DW0RW2fFuoiYauE,Albany Mega Centre,-36.7311252,174.7060725,"140 Don McKinnon Drive, Albany, Auckland 0632, New Zealand","establishment,point_of_interest,shopping_mall",4.3,3339.0,,https://www.albanymegacentre.co.nz/,True,shopping mall in Auckland,shopping mall
ChIJX7VTB-lHDW0RjAVWQFOKe4Q,St Kevins Arcade,-36.857694,174.7601386,"183 Karangahape Road, CBD, Auckland 1010, New Zealand","establishment,food,point_of_interest,restaurant,shopping_mall",4.4,791.0,,http://www.stkevinsarcade.co.nz/,True,shopping mall in Auckland,shopping mall
ChIJE7c2pvg5DW0Rucamil-os5s,Wairau Junction,-36.7707932,174.7365984,"5019281, Wairau Valley, Auckland 0627, New Zealand","establishment,point_of_interest,shopping_mall",4.0,447.0,+64 22 444 4314,,True,shopping mall in Auckland,shopping mall
ChIJsTdv38ZJDW0R3SfNmPQ5ZXA,Eastridge Shopping Centre,-36.8608069,174.8296347,"215 Kepa Road, Mission Bay, Auckland 1071, New Zealand","establishment,point_of_interest,shopping_mall",4.2,1401.0,,http://www.eastridge.co.nz/,True,shopping mall in Auckland,shopping mall
ChIJK9NVPqdIDW0R21jXDozLTF8,Royal Oak Shopping Mall,-36.9103582,174.7746753,"691 Manukau Road, Royal Oak, Auckland 1023, New Zealand","establishment,point_of_interest,shopping_mall",3.9,3177.0,+64 9 625 4239,http://www.royaloakmall.co.nz/,True,shopping mall in Auckland,shopping mall
ChIJuy9SxO5PDW0RQFj4XAnVDgU,Auckland Airport Shopping Centre,-36.9973428,174.7879643,"1 John Goulter Drive, airport shopping centre, Auckland 2022, New Zealand","establishment,hair_care,point_of_interest,shopping_mall",4.3,1646.0,+64 9 275 0789,,True,shopping mall in Auckland,shopping mall
ChIJSxs4MeVHDW0Rk30fC1EepRs,Mid City,-36.8500418,174.7642568,"239 Queen Street, Auckland Central, Auckland 1010, New Zealand","establishment,point_of_interest,shopping_mall",4.1,324.0,+64 9 357 6212,http://www.midcity.co.nz/,True,shopping mall in Auckland,shopping mall
ChIJ3S2EqWhBDW0Re5l4THSzlR0,Kelston Mall,-36.9094263,174.6636791,"16 West Coast Road, Glen Eden, Auckland 0602, New Zealand","establishment,point_of_interest,shopping_mall",3.9,1368.0,+64 9 818 4372,http://www.kelstonmall.co.nz/,True,shopping mall in Auckland,shopping mall
ChIJc_fK9vU_DW0RwYm-vmuTF10,Royal Heights Shopping Centre,-36.8324468,174.6229913,"Massey, Auckland 0614, New Zealand","establishment,point_of_interest,shopping_mall",3.7,341.0,,,True,shopping mall in Auckland,shopping mall
ChIJySzmVihEDW0R82KJ5_q_SrA,Lynfield Shopping Centre,-36.9254368,174.722993,"Mount Roskill, Auckland 1041, New Zealand","establishment,point_of_interest,shopping_mall",4.3,664.0,,https://www.lynnmall.co.nz/en/,True,shopping mall in Auckland,shopping mall
ChIJOwycJ_xHDW0RNvu0k0b_JlE,Atrium on Takutai,-36.8448111,174.7701425,"Auckland Central, Auckland 1010, New Zealand","establishment,point_of_interest,shopping_mall",4.2,125.0,,https://www.myguideauckland.com/shopping/atrium-on-takutai,True,shopping mall in Auckland,shopping mall
ChIJMXshW0BJDW0R1eLmSMbTJMg,Mount Wellington Shopping Centre,-36.9090808,174.8374863,"295 Penrose Road, Mount Wellington, Auckland 1060, New Zealand","establishment,point_of_interest,shopping_mall",4.1,1165.0,,http://www.mtwellingtonshoppingcentre.co.nz/,True,shopping mall in Auckland,shopping mall
ChIJcx8fifE4DW0ROigD6RoZz5c,Highbury Birkenhead,-36.81095980000001,174.7247724,"1 Cnr Highbury Bypass &, Birkenhead Avenue, Birkenhead, Auckland 0626, New Zealand","establishment,point_of_interest,shopping_mall",3.9,1881.0,+64 21 671 401,https://highburyshoppingcentre.co.nz/,True,shopping mall in Auckland,shopping mall
ChIJBYyvg044DW0RMNlINZLnfS8,Northcote Central,-36.8012662,174.7458415,"Lake Road, Northcote, Auckland 0627, New Zealand","establishment,point_of_interest,shopping_mall",3.9,1473.0,+64 274 966 283,https://www.northcote.co.nz/,True,shopping mall in Auckland,shopping mall
ChIJh02HJpsjDW0Rf1ET2sHA3dc,Silverdale Mall,-36.6129867,174.680215,"75 Silverdale Street, Silverdale, Auckland 0932, New Zealand","establishment,point_of_interest,shopping_mall",4.0,1150.0,+64 9 930 8791,https://silverdalemall.co.nz/,True,shopping mall in Auckland,shopping mall
ChIJj5xfpbNIDW0RrwCYwldt6hw,Dress Smart Outlet Shopping Centre,-36.9217166,174.7863983,"151 Arthur Street, Onehunga, Auckland 1061, New Zealand","establishment,point_of_interest,shopping_mall",4.3,9126.0,+64 9 622 2400,https://auckland.dress-smart.co.nz/,True,shopping mall in Auckland,shopping mall
ChIJPbIiHUpIDW0RVUIIrPsa9-o,Orakei Bay Village,-36.8632168,174.8096994,"228 Orakei Road, Remuera, Auckland 1071, New Zealand","beauty_salon,cafe,clothing_store,establishment,food,jewelry_store,point_of_interest,restaurant,shopping_mall,store",4.3,787.0,+64 9 366 1039,http://obv.co.nz/,True,shopping mall in Auckland,shopping mall
ChIJJSx3ovpHDW0R89jsY_JPbh0,Uluhanga mall,-36.8483442,174.7633835,"51 Victoria Street West, Auckland Central, Auckland 1010, New Zealand","establishment,point_of_interest,shopping_mall",5.0,2.0,,,True,shopping mall in Auckland,shopping mall
ChIJjVz2neVHDW0RvvmjoI-mC3w,Queens Court,-36.8528527,174.7638726,"368 Queen Street, Auckland Central, Auckland 1010, New Zealand","establishment,food,point_of_interest,shopping_mall",4.4,65.0,,https://www.queenscourt.nz/,True,shopping mall in Auckland,shopping mall
ChIJQw7YC9tHDW0RHhWM2QZ7Yqo,Canterbury Arcade,-36.8480966,174.7659197,"170 Queen Street, Auckland Central, Auckland 1010, New Zealand","establishment,point_of_interest,shopping_mall",4.2,59.0,,,True,shopping mall in Auckland,shopping mall
ChIJo9sirV9IDW0RwaWNhEDNfJQ,REMUERA MALL,-36.8808353,174.796406,"319 Remuera Road, Remuera, Auckland 1050, New Zealand","establishment,point_of_interest,shopping_mall",4.1,42.0,,https://wego.here.com/new-zealand/auckland/shopping-centre/remuera-mall--554rckq3-db99291b1f554560ac03d380044c1f3e,True,shopping mall in Auckland,shopping mall
ChIJV1CHjvJHDW0RKQ6mAOZO6aE,Victoria Park Market,-36.8484097,174.7545492,"Auckland Central, Auckland 1010, New Zealand","establishment,point_of_interest,shopping_mall",3.7,453.0,,,False,shopping mall in Auckland,shopping mall
ChIJ7emtwflMDW0RaXCJOLTCpGg,Botany Junction,-36.964772,174.9027543,"Corner of Te Irirangi Drive and, Ormiston Road, Botany South, Manukau 2016, New Zealand","establishment,point_of_interest,shopping_mall",4.3,1862.0,,http://www.botanyjunction.co.nz/,True,shopping mall in Auckland,shopping mall
ChIJBwCQBrRBDW0Rc1KWSGpKvw4,A2Z Westfield Henderson,-36.8804957,174.6335187,"7 Catherine Street, Henderson, Auckland 0612, New Zealand","establishment,point_of_interest,shopping_mall",4.3,216.0,+64 9 835 1145,,True,shopping mall in Auckland,shopping mall
ChIJbx3gXixHDW0R16vnoHN8qsk,Victoria Street Lookout Auckland,-36.8479398,174.758249,"Victoria Street West, Auckland Central, Auckland 1010, New Zealand","establishment,point_of_interest,shopping_mall",5.0,1.0,,,True,shopping mall in Auckland,shopping mall
ChIJb6WwMuVHDW0RQIY1PWZcRwY,Strand Arcade,-36.8498341,174.7645109,"227 Queen Street, Auckland Central, Auckland 1010, New Zealand","establishment,point_of_interest,shopping_mall",4.2,113.0,+64 22 497 9318,,True,shopping mall in Auckland,shopping mall
ChIJDx2wMPpHDW0RzvQ3Bvk3RHw,DFS Auckland,-36.8446421,174.7657516,"22 Customs Street West, Auckland City, Auckland 1010, New Zealand","clothing_store,department_store,establishment,jewelry_store,point_of_interest,shopping_mall,store,travel_agency",3.9,539.0,+64 9 942 7474,https://www.dfs.com/en/auckland/stores/t-galleria-by-dfs-auckland?utm_source=google-maps&utm_medium=organic,True,shopping mall in Auckland,shopping mall
ChIJj1r2xXZIDW0R2WBpX3Q_TCk,Rialto Centre,-36.868543,174.7774282,"F2/135 Broadway, Newmarket, Auckland 1023, New Zealand","clothing_store,establishment,food,movie_theater,point_of_interest,shopping_mall,store",4.0,957.0,,,True,shopping mall in Auckland,shopping mall
ChIJe26raxFBDW0Rci_J5lUnQuE,The Boundary,-36.8827075,174.6357303,"5 Vitasovich Avenue, Henderson, Auckland 0612, New Zealand","establishment,point_of_interest,shopping_mall",4.3,1981.0,+64 21 893 243,http://www.theboundary.co/,True,shopping mall in Auckland,shopping mall
ChIJF6DHN8VSDW0RrM25ccYgmtE,Southgate Shopping Centre,-37.0488015,174.9288326,"230 Great South Road, Takanini, Auckland 2112, New Zealand","establishment,point_of_interest,shopping_mall",4.2,1212.0,+64 800 003 344,http://www.southgatecentre.co.nz/,True,shopping mall in Auckland,shopping mall
ChIJ1WVyXStMDW0Rg3GnXLBevOA,Hunters Plaza,-36.9708754,174.8604448,"217 Great South Road, Papatoetoe, Auckland 2025, New Zealand","establishment,point_of_interest,shopping_mall",4.0,3585.0,+64 9 277 7516,https://www.huntersplaza.co.nz/,True,shopping mall in Auckland,shopping mall
ChIJvyAh46RJDW0R0BHIsn7Xvy8,Meadowbank Shopping Centre,-36.87607680000001,174.8283131,"35 Saint Johns Road, St Johns, Auckland 1072, New Zealand","establishment,point_of_interest,shopping_mall",4.0,1019.0,+64 28 2580 6513,http://www.meadowbankshoppingcentre.com/,True,shopping mall in Auckland,shopping mall
ChIJB8gHTuRHDW0R6BJGn_ZLn7A,Highpoint Shopping Centre,-36.8545398,174.7595249,"150vincent st, Auckland Central, Auckland 1012, New Zealand","establishment,point_of_interest,shopping_mall",3.7,3.0,+64 210 918 0102,,False,shopping mall in Auckland,shopping mall
ChIJr98T31M5DW0R5j3ynX1mk3k,Takàpuna shopping center,-36.7878363,174.7700703,"New Zealand, Auckland, Takapuna, 新西兰邮政编码: 0622","establishment,point_of_interest,shopping_mall",4.1,80.0,+64 9 978 6300,,True,shopping mall in Auckland,shopping mall
ChIJ2-ZTDBdSDW0RW0rNNBHcJDc,Clendon Park Shopping Centre,-37.0327274,174.8680019,"Roscommon Road, Clendon Park, Auckland 2103, New Zealand","establishment,point_of_interest,shopping_mall",3.7,1610.0,,,True,shopping mall in Auckland,shopping mall
ChIJ4eyoHmJGDW0Rk3nspaxK808,22 Stoddard,-36.9077479,174.7326831,"203/22 Stoddard Road, Wesley, Auckland 1041, New Zealand","establishment,point_of_interest,shopping_mall",4.2,369.0,+64 9 366 1666,,True,shopping mall in Auckland,shopping mall
ChIJA9BuyLZODW0RwQhcOEa85nk,Southmall Manurewa,-37.022621,174.8965761,"185/201 Great South Road, Manurewa, Auckland 2102, New Zealand","establishment,point_of_interest,shopping_mall",3.7,2370.0,+64 9 267 0458,http://www.southmall.co.nz/,True,shopping mall in Auckland,shopping mall
ChIJM1N8BgpPDW0R-1LMojBBSzc,Mangere Town Centre,-36.9691884,174.800108,"93 Bader Drive, Māngere, Auckland 2153, New Zealand","establishment,point_of_interest,shopping_mall",3.9,2500.0,+64 9 275 7078,http://mangeretowncentre.nz/,True,shopping mall in Auckland,shopping mall
ChIJ6XDepH5PDW0RZcHhoRKBpLw,Mangere Bridge Village,-36.9432592,174.7877134,"19/45 Coronation Road, Māngere Bridge, Auckland 2022, New Zealand","establishment,point_of_interest,shopping_mall",4.5,106.0,,http://www.mangerebridge.co.nz/index.php,True,shopping mall in Auckland,shopping mall
ChIJOxtcewVLDW0R6Xr8hZnJpj0,Highland Park Town Centre,-36.8989875,174.9071577,"503/505 Pakuranga Road, Highland Park, Auckland 2010, New Zealand","establishment,parking,point_of_interest,shopping_mall",3.6,144.0,,https://www.highlandparkshoppingcentre.co.nz/,False,shopping mall in Auckland,shopping mall
ChIJY5ETuM2gEm0RFg6D9SQ6qsE,Bhana's Foodmarket & Takeaways,-37.1117172,174.6159085,"2619 Awhitu Road, Matakawau, Auckland 2684, New Zealand","convenience_store,establishment,food,liquor_store,meal_takeaway,point_of_interest,restaurant,store",4.7,28.0,+64 9 235 1016,,True,grid_classic_tourist_attraction,restaurant
ChIJ9ZbEMHtUDW0Ryc_oIcD-FWQ,Karaka Community Event Centre @ Karaka Sports Park,-37.1014611,174.8789418,"372 Blackbridge Road, Karaka 2580, New Zealand","establishment,food,park,point_of_interest,restaurant",4.4,177.0,+64 9 292 7588,https://www.karakasportspark.co.nz/,False,grid_classic_tourist_attraction,park
ChIJASVaaABVDW0RqMKsv4Zyo-A,Little Eats,-37.1014867,174.8791453,"372 Blackbridge Road, Karaka 2580, New Zealand","establishment,food,point_of_interest,restaurant",5.0,3.0,+64 9 292 7400,http://www.littleeats.co.nz/,False,grid_classic_tourist_attraction,restaurant
ChIJfeVmBolTDW0Ra6Js8Vqvk0c,Karaka General Store and Cafe,-37.0986319,174.8849175,"257 Linwood Road, Karaka 2580, New Zealand","cafe,establishment,food,point_of_interest,restaurant",4.5,350.0,+64 9 291 9303,https://www.facebook.com/karakageneralcafeandstore/,True,grid_classic_tourist_attraction,restaurant
ChIJM_Iu0OhSDW0R1tj54gSPoy0,Autobahn Cafe Papakura,-37.0877458,174.9398176,"State Highway 1, Rosehill, Auckland 2113, New Zealand","establishment,food,point_of_interest,restaurant",4.0,1724.0,+64 9 296 2299,http://www.autobahncafe.co.nz/,True,grid_classic_tourist_attraction,restaurant
ChIJRefxMsVUDW0RdLgnn-o6BrU,McDonald's Drury MSA,-37.0875164,174.9396903,"Shop no. 2, BP Motorway Service Centre, Auckland Southern Motorway, Rosehill, Auckland 2113, New Zealand","establishment,food,point_of_interest,restaurant",3.6,3069.0,+64 9 296 6395,https://mcdonalds.co.nz/find-us/restaurants?utm_source=organic&utm_medium=google-my-business,True,grid_classic_tourist_attraction,restaurant
ChIJZy-EPtutcm0RwXTSsP15Yng,MADE Cafe,-37.1022131,174.9404391,"183 Bremner Road, Auckland 2113, New Zealand","cafe,establishment,food,point_of_interest,restaurant",3.7,14.0,,https://www.made-cafe.com/,True,grid_classic_tourist_attraction,restaurant
ChIJ-zxyFjJTDW0RDSD0tBGseyw,Park Green Cafe & Bar,-37.0862237,174.9298277,"180 Park Estate Road, Rosehill, Auckland 2113, New Zealand","establishment,food,point_of_interest,restaurant",4.8,65.0,+64 9 218 9599,https://parkgreencafe.co.nz/,True,grid_classic_tourist_attraction,restaurant
ChIJKYfFqExTDW0R0_hoHm2Dijs,wildbean cafe,-37.0883061,174.9398763,"Auckland Southern Motorway, Rosehill, Auckland 2113, New Zealand","bakery,cafe,establishment,food,point_of_interest,restaurant,store",3.3,25.0,+64 9 296 4530,https://www.bp.com/en_nz/new-zealand/home.html,True,grid_classic_tourist_attraction,restaurant
ChIJkeIdl6escm0RGpBhR7-EWmo,Ned's Roasts,-37.1028905,174.9524112,"5/232 Great South Road, Auckland 2113, New Zealand","establishment,food,meal_takeaway,point_of_interest,restaurant",4.5,189.0,+64 9 294 9010,https://www.drurymotorlodge.com/,True,grid_classic_tourist_attraction,restaurant
ChIJmeDsHqascm0R8ziHIqWYqks,Murphy's Law Irish Bar,-37.1007618,174.9515078,"200 Great South Road, Drury 2113, New Zealand","bar,establishment,food,lodging,point_of_interest,restaurant,rv_park",4.3,939.0,+64 9 294 9054,http://www.murphyslawirishbar.co.nz/,True,grid_classic_tourist_attraction,restaurant
ChIJfb1syXqtcm0RBmBz7MNoc8s,Mum’s Sushi,-37.1033793,174.9522345,"232 Great South Road, Drury 2113, New Zealand","establishment,food,point_of_interest,restaurant",4.4,27.0,+64 9 294 8825,,True,grid_classic_tourist_attraction,restaurant
ChIJe96UJ6etcm0Rnf_YUfAnGFU,Curry & Craft Indian Restaurant,-37.10373999999999,174.952117,"11/236 Great South Road, Auckland 2113, New Zealand","establishment,food,point_of_interest,restaurant",5.0,3.0,+64 9 558 7541,http://www.curryandcraft.co.nz/,True,grid_classic_tourist_attraction,restaurant
ChIJh6rk8SVTDW0RHhiQyI3AQuc,Karaka Spice Junction,-37.0839268,174.9075999,"322 Hingaia Road, Karaka 2580, New Zealand","establishment,food,meal_takeaway,point_of_interest,restaurant",4.6,251.0,+64 9 296 1577,http://karakaspicejunction.co.nz/,True,grid_classic_tourist_attraction,restaurant
ChIJgzIZtNWscm0R0c__C7Mkh5g,New Ruby Restaurant,-37.0635525,174.9437524,"2 Averill Street, Papakura, Auckland 2110, New Zealand","establishment,food,point_of_interest,restaurant",4.1,378.0,+64 9 298 7871,https://www.facebook.com/New-Ruby-Restaurant-187099764644568/,True,grid_classic_tourist_attraction,restaurant
ChIJ8YreyNWscm0R5hm19TKf7s8,Wild Orchid Thai Restaurant,-37.0635227,174.9439223,"6 Averill Street, Papakura, Auckland 2110, New Zealand","establishment,food,point_of_interest,restaurant",4.2,218.0,+64 9 296 9996,http://wildorchidthai.co.nz/,True,grid_classic_tourist_attraction,restaurant
ChIJKZ-vmtWscm0R_0VQ7438jB4,The Emerald Thai Restaurant,-37.0619444,174.9433333,"60 O'Shannessy Street, Papakura, Auckland 2244, New Zealand","establishment,food,point_of_interest,restaurant",4.1,396.0,+64 9 296 7112,,True,grid_classic_tourist_attraction,restaurant
ChIJHdlxLSutcm0RMw89IS8BT0I,Wendy's Hamburgers,-37.05801630000001,174.9401924,"80/82 Great South Road, Papakura, Auckland 2110, New Zealand","establishment,food,point_of_interest,restaurant",3.7,901.0,+64 9 298 4856,http://www.wendys.co.nz/,True,grid_classic_tourist_attraction,restaurant
ChIJd2ktddWscm0RF5Fkc7jsKKg,Ezmeralda's Cafe,-37.0625187,174.9429842,"23 Broadway, Papakura, Auckland 2110, New Zealand","cafe,establishment,food,point_of_interest,restaurant",4.5,593.0,+64 9 298 5160,,True,grid_classic_tourist_attraction,restaurant
ChIJ22Z-MtWscm0RBtmF1sbxIyo,Pizza Hut,-37.0629699,174.9402186,"25B Elliot Street, Papakura, Auckland 2110, New Zealand","establishment,food,meal_delivery,meal_takeaway,point_of_interest,restaurant",4.2,910.0,+64 800 838 383,https://www.pizzahut.co.nz/home?utm_source=organic&utm_medium=google-my-business&utm_campaign=5754,True,grid_classic_tourist_attraction,restaurant
ChIJI50G1Sqtcm0R68HY5lxSlvM,KFC,-37.058516,174.940423,"Great South Road, Papakura, Auckland 2112, New Zealand","establishment,food,meal_takeaway,point_of_interest,restaurant",3.3,1379.0,+64 9 296 0951,https://kfc.co.nz/?utm_source=organic&utm_medium=google-my-business&utm_campaign=5553,True,grid_classic_tourist_attraction,restaurant
ChIJJbCvWjRTDW0RqAtr2eIL_vI,Rosehill Shopping Centre,-37.0791114,174.9369218,"27 Edinburgh Avenue, Rosehill, Auckland 2113, New Zealand","establishment,food,grocery_or_supermarket,laundry,liquor_store,meal_takeaway,point_of_interest,restaurant,shopping_mall,store",4.0,78.0,+64 9 298 8465,,True,grid_classic_tourist_attraction,shopping mall
ChIJG-2oOdWscm0Rzfw2q727T7g,Galaxy Pizza,-37.0627959,174.9410009,"16 East Street, Papakura, Auckland 2110, New Zealand","establishment,food,meal_delivery,meal_takeaway,point_of_interest,restaurant",4.5,372.0,+64 9 299 9001,https://www.galaxypizza.co.nz/,True,grid_classic_tourist_attraction,restaurant
ChIJqfWVCNWscm0Rfz6j9VQSDwg,Satay Noodle House,-37.063129,174.942459,"183 Great South Road, Papakura, Auckland 2110, New Zealand","establishment,food,point_of_interest,restaurant",4.6,586.0,+64 9 296 9296,https://linktr.ee/bunssataynoodlehouse,True,grid_classic_tourist_attraction,restaurant
ChIJWy_RadSscm0RUWkn_a-nBF8,The Pizza Box,-37.0652717,174.9435757,"58 Wood Street, Papakura, Auckland 2110, New Zealand","cafe,establishment,food,point_of_interest,restaurant",4.2,413.0,+64 9 299 6677,http://www.pizzabox.co.nz/,True,grid_classic_tourist_attraction,restaurant
ChIJ31tZRdSscm0RHQmKb2pXHL0,Red Earth Bistro and Wine Bar,-37.0645932,174.9434416,"255 Great South Road, Papakura, Auckland 2110, New Zealand","establishment,food,point_of_interest,restaurant",4.6,572.0,+64 9 296 9027,https://redearthbistro.co.nz/,True,grid_classic_tourist_attraction,restaurant
ChIJq-03oYlIDW0R4dxxcUbwNl4,Noodle Canteen Papakura,-37.061636,174.941206,"123 Great South Road, Papakura, Auckland 2110, New Zealand","establishment,food,point_of_interest,restaurant",3.8,171.0,+64 9 298 9268,https://www.noodlecanteen-online.co.nz/papakura,True,grid_classic_tourist_attraction,restaurant
ChIJzdsLVNKscm0RM2sjWcqgINA,Subway,-37.0626354,174.9424586,"160 Great South Road, Papakura, Auckland 2110, New Zealand","establishment,food,point_of_interest,restaurant",3.5,188.0,+64 9 298 4947,http://www.subway.co.nz/,True,grid_classic_tourist_attraction,restaurant
ChIJ9QGjotWscm0R4rNQZy4wTBc,Salt & Pepper restaurant,-37.0623077,174.9431124,"32 Broadway, Papakura, Auckland 2110, New Zealand","establishment,food,point_of_interest,restaurant",4.1,318.0,+64 9 299 2992,https://saltpepperpapakura.co.nz/,True,grid_classic_tourist_attraction,restaurant
ChIJZTkEriqtcm0R8PK5U7qaF3Y,McDonald's Papakura,-37.059984,174.9402132,"101 Great South Road, Papakura, Auckland 2110, New Zealand","establishment,food,point_of_interest,restaurant",3.7,2163.0,+64 9 298 2600,https://mcdonalds.co.nz/page/open-restaurants,True,grid_classic_tourist_attraction,restaurant
ChIJHWncyiqtcm0REH2IN6q1YZQ,HELL Pizza Papakura,-37.0596266,174.940182,"89 Great South Road, Papakura, Auckland 2110, New Zealand","establishment,food,meal_delivery,meal_takeaway,point_of_interest,restaurant",3.9,234.0,+64 9 296 2666,https://hellpizza.com/,True,grid_classic_tourist_attraction,restaurant
ChIJEwiuLtVSDW0RLXKgToQSVOU,Punjab Palace,-37.0587224,174.9398306,"71D Great South Road, Papakura, Auckland 2110, New Zealand","establishment,food,meal_takeaway,point_of_interest,restaurant",4.0,313.0,+64 9 296 7188,https://www.timmur.co.nz/,False,grid_classic_tourist_attraction,restaurant
ChIJ17dNQdSscm0RgNrwimu8FGM,Lucky Day Takeaway,-37.0649665,174.9437648,"277 Great South Road, Papakura, Auckland 2110, New Zealand","establishment,food,meal_takeaway,point_of_interest,restaurant",4.5,254.0,+64 9 296 2117,,True,grid_classic_tourist_attraction,restaurant
ChIJde9VN86scm0RwLVM5B0yYo8,Opaheke Takeaways,-37.0731936,174.9472645,"37 Opaheke Road, Ōpaheke, Auckland 2113, New Zealand","establishment,food,meal_takeaway,point_of_interest,restaurant",3.9,222.0,+64 9 298 5994,,True,grid_classic_tourist_attraction,restaurant
ChIJL7IxFppNDW0RKuQYOfsCNb8,Domino's Pizza Papakura,-37.0585185,174.9398832,"2/69 Great South Road, Papakura, Auckland 1703, New Zealand","establishment,food,meal_delivery,meal_takeaway,point_of_interest,restaurant",3.2,666.0,+64 9 299 3601,https://www.dominos.co.nz/store/nz-papakura-98945?utm_source=google&utm_medium=places-organic&utm_campaign=yext&utm_content=googleURL,True,grid_classic_tourist_attraction,restaurant
ChIJ3Tkokdascm0R_uE0MRcqo7c,Brandy's Cafe,-37.0638777,174.9453875,"2/14 Railway Street West, Papakura, Auckland 2110, New Zealand","cafe,establishment,food,point_of_interest,restaurant",4.0,114.0,+64 27 973 9355,,False,grid_classic_tourist_attraction,restaurant
ChIJiS-ky9ZSDW0Ri3Suqyloqbw,Shang Lee Smorgasbord & Chinese Takeaways,-37.0587519,174.939768,"3/71 Great South Road, Papakura, Auckland 2110, New Zealand","establishment,food,point_of_interest,restaurant",4.2,268.0,+64 9 298 1551,,True,grid_classic_tourist_attraction,restaurant
ChIJGTVvSNSscm0RhtwE-ZuRLlQ,Stampede Restaurant & Bar,-37.0644544,174.9439583,"238 Great South Road, Papakura, Auckland 2110, New Zealand","bar,establishment,food,night_club,point_of_interest,restaurant",4.0,1213.0,+64 9 297 8991,http://www.stampede.co.nz/,True,grid_classic_tourist_attraction,restaurant
ChIJ7ZdC8c5TDW0RbOBWim1MfpA,MELBA Karaka,-37.0732035,174.9269358,"47 Harbourside Drive, Karaka, Auckland 2113, New Zealand","establishment,food,point_of_interest,restaurant",4.3,656.0,+64 9 296 8899,https://melba.nz/,True,grid_classic_tourist_attraction,restaurant
ChIJY8_Wnd1TDW0RWV_mgsyOTSg,Subway,-37.0734546,174.9263041,"47 Harbourside Drive, Karaka 2113, New Zealand","establishment,food,point_of_interest,restaurant",3.6,82.0,+64 9 213 9954,https://www.subway.com/en-NZ/,True,grid_classic_tourist_attraction,restaurant
ChIJJdzPj3NTDW0RH8MISGgsufc,McDonald's Karaka,-37.0735171,174.9261533,"47 Harbourside Drive, Karaka 2113, New Zealand","establishment,food,point_of_interest,restaurant",3.9,917.0,+64 9 217 3477,https://mcdonalds.co.nz/,True,grid_classic_tourist_attraction,restaurant
ChIJj2nwGy9TDW0RXBNo-sWfjuc,Pizza Hut,-37.0735713,174.9260738,"2/47 Harbourside Drive, Karaka 2113, New Zealand","establishment,food,point_of_interest,restaurant",4.6,136.0,+64 9 296 0655,https://www.pizzahut.co.nz/home,True,grid_classic_tourist_attraction,restaurant
ChIJzXfjY_9TDW0RB6SlDQk8zdw,Ethereal Restaurant,-37.074452,174.9266678,"8 Hinau Road, Papakura, Auckland 2113, New Zealand","establishment,food,point_of_interest,restaurant",4.2,44.0,+64 9 296 3391,https://www.etherealrestaurant.co.nz/,True,grid_classic_tourist_attraction,restaurant
ChIJ_-zlbhpTDW0RpOUUXaFpYIs,St Pierres Sushi Karaka,-37.0736114,174.9256384,"Unit 1/47 Harbourside Drive, Karaka, Auckland 2113, New Zealand","establishment,food,meal_takeaway,point_of_interest,restaurant",3.1,30.0,+64 9 296 1012,https://stpierres.online/?utm_source=google&utm_medium=organic&utm_campaign=Google%20My%20Business&utm_content=St%20Pierre%27s%20Sushi%20Karaka%20-%20Auckland&utm_term=plcid_11227758240562636179,True,grid_classic_tourist_attraction,restaurant
ChIJb6FLEABTDW0Ru1aPtWbEgoQ,KFC,-37.073387,174.9248676,"49 Hingaia Road, Karaka 2580, New Zealand","establishment,food,point_of_interest,restaurant",4.1,207.0,+64 9 296 1663,https://kfc.co.nz/,True,grid_classic_tourist_attraction,restaurant
ChIJqymdZQBTDW0RKtmcjXB4wBk,Taco Bell Karaka,-37.0739618,174.9246574,"43 Hingaia Road, Karaka 2580, New Zealand","establishment,food,point_of_interest,restaurant",3.7,138.0,+64 9 296 0070,https://tacobell.co.nz/,True,grid_classic_tourist_attraction,restaurant
ChIJU5NdRDxTDW0RRpXNkLhVLoQ,Urban Soul Cafe and Bistro,-37.0745349,174.923144,"71 Hingaia Road, Karaka 2113, New Zealand","cafe,establishment,food,point_of_interest,restaurant",4.2,1592.0,+64 9 216 7973,http://www.urbansoul.co.nz/,True,grid_classic_tourist_attraction,restaurant
ChIJq1d68CNTDW0RyXhyclukD8E,"Cinnamon, Indian Eatery & Bar",-37.0743729,174.9225445,"Unit B4/75 Hingaia Road, Karaka 2113, New Zealand","establishment,food,point_of_interest,restaurant",4.9,211.0,+64 9 390 0050,https://cinnamon.nz/,True,grid_classic_tourist_attraction,restaurant
ChIJ9xB6VDxTDW0R94PX5SwFT3o,Sushi wa Kim chef,-37.0742378,174.9223785,"7/75 Hingaia Road, Karaka 2113, New Zealand","establishment,food,point_of_interest,restaurant",4.4,87.0,+64 9 299 7115,https://m.facebook.com/sushiwakimchef/,True,grid_classic_tourist_attraction,restaurant
ChIJPQj8ay9TDW0RNK6A3PbkCow,Pahurehure Takeaways,-37.0676204,174.9306696,"95 Elliot Street, Pahurehure, Auckland 2113, New Zealand","establishment,food,meal_takeaway,point_of_interest,restaurant",4.5,286.0,+64 9 299 6538,,True,grid_classic_tourist_attraction,restaurant
ChIJpecdbbpTDW0RKUppGIgYdhw,Kebabs & More,-37.0789783,174.9320458,"83 Chichester Drive, Rosehill, Auckland 2113, New Zealand","establishment,food,meal_takeaway,point_of_interest,restaurant",5.0,4.0,+64 20 4006 3632,,True,grid_classic_tourist_attraction,restaurant
ChIJE1bsltOscm0RoMh-mXXMwZM,Rosehill Takeaways,-37.079128,174.936971,"27 Edinburgh Avenue, Rosehill, Auckland 2113, New Zealand","establishment,food,point_of_interest,restaurant",4.4,140.0,+64 9 298 5976,,False,grid_classic_tourist_attraction,restaurant
ChIJ-XOChpVTDW0RgYmapjw0dOQ,Masala vibe,-37.0813952,174.9189277,"18 Gelderland Way, Karaka 2113, New Zealand","establishment,food,meal_takeaway,point_of_interest,restaurant",5.0,21.0,+64 27 954 6438,https://www.ordermeal.co.nz/masala-vibe/,True,grid_classic_tourist_attraction,restaurant
ChIJjX4ECb2tcm0RIRXCmxb1TFo,Grazeyard Food Trailer,-37.0637247,174.9401446,"20 Elliot Street, Papakura, Auckland 2110, New Zealand","establishment,food,point_of_interest,restaurant",5.0,12.0,+64 20 4014 1212,,True,grid_classic_tourist_attraction,restaurant
ChIJ55Lacoitcm0RCwJPjNHQ0R8,Shree Radhe Food (SRF),-37.0637247,174.9401446,"20 Elliot Street, Papakura, Auckland 2110, New Zealand","establishment,food,point_of_interest,restaurant",5.0,30.0,+64 22 088 5938,,False,grid_classic_tourist_attraction,restaurant
ChIJjT21_QKtcm0RJTb-JKVj5HE,Punjab Express Papakura,-37.0663819,174.9435609,"315 Great South Road, Papakura, Auckland 2110, New Zealand","establishment,food,meal_takeaway,point_of_interest,restaurant",3.3,237.0,+64 9 296 1339,http://www.punjabexpress.nz/,True,grid_classic_tourist_attraction,restaurant
ChIJ4RQkNAetcm0RnFFiBDOBtlc,Select Pizza,-37.066191,174.943575,"3/311 Great South Road, Papakura, Auckland 2110, New Zealand","establishment,food,point_of_interest,restaurant",3.8,49.0,+64 9 296 0408,https://www.ordermeal.co.nz/select-pizza-papakura/?omclick=y,True,grid_classic_tourist_attraction,restaurant
ChIJ5_taC1JTDW0Ra3MLGazz1hY,Ribs & Wings Papakura,-37.0661896,174.9435771,"3/311 Great South Road, Papakura, Auckland 2110, New Zealand","establishment,food,point_of_interest,restaurant",2.8,13.0,+64 9 296 0408,http://www.ribsandwings.co.nz/,True,grid_classic_tourist_attraction,restaurant
ChIJ1x1OTWetcm0RIiaxjwwch7Y,Gourmet king takeaway,-37.0632771,174.9415929,"22 East Street, Papakura, North 2110, New Zealand","establishment,food,point_of_interest,restaurant",3.4,30.0,+64 9 296 2688,,True,grid_classic_tourist_attraction,restaurant
ChIJyc8l4PGtcm0R9Qvyu7NU_X0,Turmeric Flavours Of India,-37.0627213,174.9411558,"13 Elliot Street, Papakura, Auckland 2110, New Zealand","establishment,food,point_of_interest,restaurant",4.4,348.0,+64 9 558 3216,https://turmericflavourofindiaonline.co.nz/,True,grid_classic_tourist_attraction,restaurant
ChIJbaXrPtWscm0ROH-PRROX4KY,Elliot Bakery & Cafe,-37.0626849,174.9411771,"11 Elliot Street, Papakura, Auckland 2110, New Zealand","bakery,establishment,food,meal_takeaway,point_of_interest,restaurant,store",4.6,21.0,,,True,grid_classic_tourist_attraction,restaurant
ChIJtVWwP9Wscm0REt5N1k9CpG8,Family Chinese Takeaway,-37.0627101,174.9412386,"11 Elliot Street, Pahurehure, Auckland 2110, New Zealand","establishment,food,meal_takeaway,point_of_interest,restaurant",,,+64 9 296 7393,,True,grid_classic_tourist_attraction,restaurant
ChIJt41pcQCtcm0Ro9OBweATVHE,Mithaiwala Papakura,-37.0640873,174.9429813,"223 Great South Road, Papakura, Auckland 2110, New Zealand","establishment,food,point_of_interest,restaurant",3.7,103.0,+64 9 558 5493,,True,grid_classic_tourist_attraction,restaurant
ChIJ1QGUi7Gtcm0RnnYItY66mW8,Lil Abners Papakura,-37.06480579999999,174.9437014,"271 Great South Road, Papakura, Auckland 2110, New Zealand","establishment,food,meal_takeaway,point_of_interest,restaurant",4.1,110.0,+64 9 298 6786,,True,grid_classic_tourist_attraction,restaurant
ChIJwzgSXitMDW0RLWE3RvfvbYY,Grumpys,-37.0639085,174.9429822,"221 Great South Road, Papakura, Auckland 2110, New Zealand","establishment,food,point_of_interest,restaurant",4.3,284.0,+64 9 296 2700,,True,grid_classic_tourist_attraction,restaurant
ChIJ13rODdWscm0RkaX-OIjPiZ8,Ronnie's Cafe,-37.0628023,174.9422158,"167/169 Great South Road, Papakura, Auckland 2110, New Zealand","cafe,establishment,food,meal_takeaway,point_of_interest,restaurant,store",4.4,285.0,+64 9 297 7384,,True,grid_classic_tourist_attraction,restaurant
